ALEpointcodeOLD	ALEpointcodeNEW	LanguageGroup	Language	PlaceName	Latitude	Longitude	PlaceNameALEnew	PlaceNameBasetable	PlaceNameALEOld	LatitudeALEOld	LongitudeALEOld	GeonamesURL
01.0.001	ALAl001	Albanian	Albanian	Vrith	42.3328	19.5414	Vrith	Vrith	VRITH	42.3000	19.5833	http://www.geonames.org/3183693/vrith.html
01.0.002	ALAl002	Albanian	Albanian	Pac	42.2875	20.2089	Pac	Pac	PAC	42.2500	20.1667	http://www.geonames.org/782109/pac.html
01.0.003	ALAl003	Albanian	Albanian	Burgajet	41.6365	20.0595	Burgajet	Burgajet	BURGAJET	41.6667	20.0833	http://www.geonames.org/783501/burgajet.html
01.0.004	ALAl004	Albanian	Albanian	Shkallnuer	41.2898	19.5174	Shkallnuer	Shkallnuer	SHKALLNUER	41.2500	19.5833	http://www.geonames.org/3184087/shkallnur.html
01.0.005	ALAl005	Albanian	Albanian	Çibërraka	41.1663	20.2064	Xibrakë	Xibrakë	XIBRAKE	41.1667	20.1667	http://www.geonames.org/781156/xibrake.html
01.0.006	ALAl006	Albanian	Albanian	Këmbëthekër	40.7542	20.6839	Këmbëthekër	Këmbëthekër	KEMBETHEKER	40.7500	20.6667	http://www.geonames.org/782838/kembetheker.html
01.0.007	ALAl007	Albanian	Albanian	Luar	40.7006	19.7028	Luar	Luar	LUAR	40.6667	19.7500	http://www.geonames.org/3184893/luar.html
01.0.008	ALAl008	Albanian	Albanian	Sheper	40.1714	20.3058	Sheper	Sheper	SHEPER	40.1667	20.3000	http://www.geonames.org/781681/sheper.html
01.0.009	ALAl009	Albanian	Albanian	Vuno	40.1397	19.6936	Vuno	Vuno	VUNO	40.1667	19.7000	http://www.geonames.org/3183686/vuno.html
01.0.010	ALAl010	Albanian	Albanian	Shalës	39.7139	20.1611	Shalës	Shalës	SHALES	39.7000	20.1667	http://www.geonames.org/363238/shales.html
02.0.001	ATG001	Germanic	German	Schärding	48.4605	13.4327	Schärding	Schärding	SCHAERDING	48.4167	13.5000	http://www.geonames.org/7872135/schaerding.html
02.0.002	ATG002	Germanic	German	Geboltskirchen	48.1532	13.6340	Geboltskirchen	Geboltskirchen	GEBOLTSKIRCHEN	48.1667	13.5833	http://www.geonames.org/2778766/geboltskirchen.html
02.0.003	ATG003	Germanic	German	Rohrbach	48.5723	13.9900	Rohrbach	Rohrbach	ROHRBACH	48.5833	14.0000	http://www.geonames.org/7873203/rohrbach-in-oberoesterreich.html
02.0.004	ATG004	Germanic	German	Kremsmünster	48.0544	14.1262	Kremsmünster	Kremsmünster	KREMSMUENSTER	48.0833	14.1667	http://www.geonames.org/7871034/kremsmuenster.html
02.0.005	ATG005	Germanic	German	Göstling	47.8072	14.9354	Göstling	Göstling	GOESTLING	47.8333	14.9167	http://www.geonames.org/2764290/stixenlehen.html
02.0.006	ATG006	Germanic	German	Freistadt	48.5022	14.5020	Freistadt	Freistadt	FREISTADT	48.5000	14.5000	http://www.geonames.org/7871993/freistadt.html
02.0.007	ATG007	Germanic	German	Grosspertholz	48.6297	14.8266	Grosspertholz	Grosspertholz	GROSSPERTHOLZ	48.7500	15.0000	http://www.geonames.org/2764535/steinbach.html
02.0.008	ATG008	Germanic	German	Waidhofen a.d. Thaya	48.8148	15.2838	Waidhofen a.d. Thaya	Waidhofen_a.d._Thaya	WAIDHOFEN A.D. THAYA	48.8333	15.3333	http://www.geonames.org/2774120/kleingoepfritz.html
02.0.009	ATG009	Germanic	German	Hürm bei Melk	48.1561	15.4131	Hürm bei Melk	Hürm_bei_Melk	HUERM BEI MELK	48.2500	15.3333	http://www.geonames.org/2775386/huerm.html
02.0.010	ATG010	Germanic	German	Unterretzbach	48.7670	16.0037	Unterretzbach	Unterretzbach	UNTERRETZBACH	48.7500	16.0000	http://www.geonames.org/2762687/unterretzbach.html
02.0.011	ATG011	Germanic	German	Absdorf	48.4001	15.9794	Absdorf	Absdorf	ABSDORF	48.4167	16.0000	http://www.geonames.org/2783055/absdorf.html
02.0.012	ATG012	Germanic	German	Mistelbach	48.5674	16.5722	Mistelbach	Mistelbach	MISTELBACH	48.5833	16.5833	http://www.geonames.org/2772944/lanzendorf.html
02.0.013	ATG013	Germanic	German	Stillfried	48.4106	16.8455	Stillfried	Stillfried	STILLFRIED	48.4167	16.8333	http://www.geonames.org/2764304/stillfried.html
02.0.014	ATG014	Germanic	German	Schruns	47.0803	9.9192	Schruns	Schruns	SCHRUNS	47.1667	9.9167	http://www.geonames.org/2765581/schruns.html
02.0.015	ATG015	Germanic	German	Schnepfau	47.3520	9.9441	Schnepfau	Schnepfau	SCHNEPFAU	47.4167	10.0000	http://www.geonames.org/2765798/schnepfau.html
02.0.017	ATG017	Germanic	German	Elbigenalp	47.2882	10.4332	Elbigenalp	Elbingenalp	ELBINGENALP	47.4167	10.5000	http://www.geonames.org/2780153/elbigenalp.html
02.0.018	ATG018	Germanic	German	Münster	47.4216	11.8336	Münster	Münster	MUENSTER	47.3333	11.5833	http://www.geonames.org/2771028/muenster.html
02.0.019	ATG019	Germanic	German	Zell am Ziller	47.2334	11.8819	Zell am Ziller	Zell_am_Ziller	ZELL AM ZILLER	47.2500	11.9167	http://www.geonames.org/2760632/zell-am-ziller.html
02.0.020	ATG020	Germanic	German	Brixen im Thale	47.4500	12.2500	Brixen bei Kitzbühl	Brixen_bei_Kitzbühl	BRIXEN BEI KITZBUEHL	47.5000	12.3333	http://www.geonames.org/2781394/brixen-im-thale.html
02.0.021	ATG021	Germanic	German	Piesendorf	47.2898	12.7184	Piesendorf	Piesendorf	PIESENDORF	47.2500	12.5000	http://www.geonames.org/7872246/piesendorf.html
02.0.022	ATG022	Germanic	German	Saalfelden	47.4274	12.8411	Saalfelden	Saalfelden	SAALFELDEN	47.5000	12.8333	http://www.geonames.org/2766922/saalfelden-am-steinernen-meer.html
02.0.024	ATG024	Germanic	German	Dorfbeuern	48.0214	13.0159	Dorfbeuern	Dorfbeuren	DORFBEUREN	47.9167	13.0833	http://www.geonames.org/2780811/dorfbeuern.html
02.0.025	ATG025	Germanic	German	Zederhaus	47.1542	13.5048	Zederhaus	Zederhaus	ZEDERHAUS	47.1667	13.5000	http://www.geonames.org/2760704/zederhaus.html
02.0.026	ATG026	Germanic	German	Ebensee	47.8071	13.7790	Ebensee	Ebensee	EBENSEE	47.7500	13.8333	http://www.geonames.org/2780547/ebensee.html
02.0.027	ATG027	Germanic	German	Stainach	47.5325	14.1084	Stainach	Stainach	STAINACH	47.5000	14.0833	http://www.geonames.org/2764708/stainach.html
02.0.028	ATG028	Germanic	German	Niederwölz	47.1516	14.3740	Niederwölz	Niederwölz	MURAU	47.1667	14.2500	http://www.geonames.org/2770496/niederwoelz.html
02.0.029	ATG029	Germanic	German	Kammern	47.3927	14.9041	Kammern	Kammern	KAMMERN	47.4167	14.7500	http://www.geonames.org/7872424/kammern-im-liesingtal.html
02.0.030	ATG030	Germanic	German	Kainach	47.1408	15.0919	Kainach	Kainach	KAINACH	47.0833	15.3333	http://www.geonames.org/2774977/kainach-bei-voitsberg.html
02.0.031	ATG031	Germanic	German	Türnitz a.d. Traisen	47.9298	15.4896	Türnitz a.d. Traisen	Türnitz_a.d._Traisen	TUERNITZ A.D. TRAISEN	47.9167	15.5000	http://www.geonames.org/7872937/tuernitz.html
02.0.032	ATG032	Germanic	German	Veitsch	47.5791	15.4923	Veitsch	Veitsch	VEITSCH	47.5833	15.4167	http://www.geonames.org/2762458/veitsch.html
02.0.033	ATG033	Germanic	German	Weiz	47.2172	15.6230	Weiz	Weiz	WEIZ	47.1667	15.5833	http://www.geonames.org/2773053/landscha-bei-weiz.html
02.0.034	ATG034	Germanic	German	Schachen bei Vorau	47.3831	15.8567	Schachen bei Vorau	Schachen_bei_Vorau	SCHACHEN BEI VORAU	47.5000	15.8333	http://www.geonames.org/2772684/lembach.html
02.0.035	ATG035	Germanic	German	Prigglitz bei Gloggnitz	47.7040	15.9290	Prigglitz bei Gloggnitz	Prigglitz_bei_Gloggnitz	PRIGGLITZ BEI GLOGGNITZ	47.6667	15.9167	http://www.geonames.org/2768320/prigglitz.html
02.0.036	ATG036	Germanic	German	Mogersdorf	46.9474	16.2291	Mogersdorf	Mogersdorf	MOGERSDORF	47.0000	16.3333	http://www.geonames.org/2771322/mogersdorf.html
02.0.037	ATG037	Germanic	German	Stegersbach	47.1608	16.1669	Stegersbach	Stegersbach	STEGERSBACH	47.1667	16.1667	http://www.geonames.org/2764587/stegersbach.html
02.0.038	ATG038	Germanic	German	Gols am Neusiedler See	47.8990	16.9093	Gols am Neusiedler See	Gols_am_Neisiedler_See	GOLS AM NEUSIEDLER SEE	47.9167	16.9167	http://www.geonames.org/2778355/gols.html
02.0.039	ATG039	Germanic	German	Tadten	47.7638	16.9869	Tadten	Tadten	TADTEN	47.7500	17.0000	http://www.geonames.org/2763960/tadten.html
02.0.040	ATG040	Germanic	German	Sölden	46.9654	11.0078	Sölden	Sölden	SOELDEN	46.9167	10.9167	http://www.geonames.org/2764957/soelden.html
02.0.041	ATG041	Germanic	German	Ausservillgratten	46.7867	12.4286	Ausservillgratten	Ausservillgratten	AUSSERVILLGRATTEN	46.8333	12.4167	http://www.geonames.org/2782118/ausservillgraten.html
02.0.042	ATG042	Germanic	German	Dellach a.d. Drau	46.7383	13.0846	Dellach a.d. Drau	Dellach_a.d._Drau	DELLACH A.D. DRAU	46.7500	13.0833	http://www.geonames.org/2781054/dellach-im-drautal.html
02.0.043	ATG043	Germanic	German	Seeboden am Millstättersee	46.8189	13.5188	Seeboden am Millstättersee	Seeboden_am_Millstättersee	SEEBODEN AM MILLSTAETTERSEE	46.6667	13.5000	http://www.geonames.org/2765286/seeboden.html
02.0.044	ATG044	Germanic	German	Weitensfeld im Gurktal	46.8474	14.1921	Weitensfeld im Gurktal	Weitensfeld_im_Gurktal	WEITENSFELD IM GURKTAL	46.8333	14.2500	http://www.geonames.org/2761547/weitensfeld.html
02.0.046	ATG046	Germanic	German	Wolfsberg	46.8401	14.8428	Wolfsberg	Wolfsberg	WOLFSBERG	46.8333	14.8333	http://www.geonames.org/2760910/wolfsberg.html
02.0.047	ATG047	Germanic	German	Schwanberg	46.7571	15.2000	Schwanberg	Schwanberg	SCHWANBERG	46.8333	15.1667	http://www.geonames.org/2765515/schwanberg.html
02.0.048	ATG048	Germanic	German	Halbenrain	46.7225	15.9475	Halbenrain	Halbenrain	MURECK	46.7500	15.8333	http://www.geonames.org/2776959/halbenrain.html
02.1.101	ATS101	Slavic	Croatian	Großwarasdorf	47.5386	16.5533	Grosswarasdorf	Grosswarasdorf	GROSSWARASDORF (VELINI BORISTOF)	47.0333	16.0000	http://www.geonames.org/2777550/grosswarasdorf.html
02.1.102	ATS102	Slavic	Slovene	Ludmannsdorf	46.5418	14.1351	Ludmannsdorf	Ludmannsdorf	LUDMANNSDORF (BELCOVS)	46.7500	15.4167	http://www.geonames.org/2772226/ludmannsdorf.html
03.1.101	BER101	Romance	Walloon	Fontenoy	50.5678	3.4732	Fontenoy	Fontenoy	FONTENOY	50.5833	3.5000	http://www.geonames.org/2798153/fontenoy.html
03.1.102	BER102	Romance	Walloon	Pâturages	50.4048	3.8383	Pâturages	Pâturages	PATURAGES	50.5000	3.8333	http://www.geonames.org/2789254/paturages.html
03.1.103	BER103	Romance	Walloon	Jamioulx	50.3528	4.4128	Jamioulx	Jamioulx	JAMIOULX	50.3333	4.4167	http://www.geonames.org/2794974/jamioulx.html
03.1.104	BER104	Romance	Walloon	Jauchelette	50.6863	4.8436	Jauchelette	Jauchelette	JAUCHELETTE	50.6667	4.8333	http://www.geonames.org/2794956/jauchelette.html
03.1.105	BER105	Romance	Walloon	Spontin	50.3226	5.0070	Spontin	Spontin	SPONTIN	50.3333	5.0000	http://www.geonames.org/2786254/spontin.html
03.1.106	BER106	Romance	Walloon	Flémalle-Haute	50.6002	5.4460	Flémalle-Haute	Flémalle-Haute	FLEMALLE-HAUTE	50.5833	5.4167	http://www.geonames.org/2798307/flemalle-haute.html
03.1.107	BER107	Romance	Walloon	Francorchamps	50.4531	5.9531	Francorchamps	Francorchamps	FRANCORCHAMPS	50.4167	5.9167	http://www.geonames.org/2798003/francorchamps.html
03.1.108	BER108	Romance	Walloon	Tillet	50.0105	5.5297	Tillet	Tillet	TILLET	50.0000	5.5000	http://www.geonames.org/2785442/tillet.html
03.1.109	BER109	Romance	Walloon	Buzenol	49.6481	5.5948	Buzenol	Buzenol	BUZENOL	49.6667	5.5833	http://www.geonames.org/2800698/buzenol.html
04.0.001	BGS001	Slavic	Bulgarian	Garvan	44.0857	26.9055	Garvan	Garvan	GARVAN	44.0000	27.0000	http://www.geonames.org/731506/garvan.html
04.0.002	BGS002	Slavic	Bulgarian	Rakovica	43.7640	22.4713	Rakovica	Rakovica	RAKOVICA	43.8333	22.5000	http://www.geonames.org/727795/rakovitsa.html
04.0.003	BGS003	Slavic	Bulgarian	Brakjovci	43.0617	23.1552	Brakjovci	Brakjovci	BRAKJOVCI	43.0833	23.0833	http://www.geonames.org/732940/brak-ovtsi.html
04.0.004	BGS004	Slavic	Bulgarian	Slavotin	43.5585	23.0683	Slavotin	Slavotin	SLAVOTIN	43.6667	23.3333	http://www.geonames.org/727099/slavotin.html
04.0.005	BGS005	Slavic	Bulgarian	Altimir	43.5254	23.8085	Altimir	Altimir	ALTIMIR	43.5833	24.0000	http://www.geonames.org/6461511/altimir.html
04.0.006	BGS006	Slavic	Bulgarian	Staro selo	43.1579	23.8341	Staro Selo	Staro_selo	STARO SELO	43.0833	24.0833	http://www.geonames.org/726823/staro-selo.html
04.0.007	BGS007	Slavic	Bulgarian	Brest	43.6448	24.5895	Brest	Brest	BREST	43.5833	24.6667	http://www.geonames.org/732910/brest.html
04.0.008	BGS008	Slavic	Bulgarian	Stojanovo	43.1227	24.6023	Stojanovo	Stojanovo	STOJANOVO	43.1667	24.6667	http://www.geonames.org/726768/stoyanovo.html
04.0.009	BGS009	Slavic	Bulgarian	Dekov	43.6025	25.1179	Dekov	Dekov	DEKOV	43.5833	25.2500	http://www.geonames.org/6460217/dekov.html
04.0.010	BGS010	Slavic	Bulgarian	Višovgrad	43.1563	25.2988	Višovgrad	Visovgrad	VISOVGRAD	43.0833	25.4167	http://www.geonames.org/725869/vishovgrad.html
04.0.011	BGS011	Slavic	Bulgarian	Kesarevo	43.1525	25.9754	Kesarevo	Kesarevo	KESAREVO	43.1667	26.0000	http://www.geonames.org/730475/kesarevo.html
04.0.012	BGS012	Slavic	Bulgarian	Hlebarovo	43.6067	26.2410	Hlebarovo	Hlebarvovo	HLEBARVOVO	43.5833	26.3333	http://www.geonames.org/730415/tsar-kaloyan.html
04.0.013	BGS013	Slavic	Bulgarian	Vardun	43.1333	26.5333	Vardun	Vardun	VARDUN	43.0833	26.7500	http://www.geonames.org/726053/vardun.html
04.0.014	BGS014	Slavic	Bulgarian	Medovo	43.6086	27.5351	Medovo	Medovo	MEDOVO	43.6667	27.5833	http://www.geonames.org/729162/medovo.html
04.0.015	BGS015	Slavic	Bulgarian	Krivnja	43.1948	27.3966	Krivnja	Krivnja	KRIVNJA	43.0833	27.6667	http://www.geonames.org/6459851/krivnja.html
04.0.016	BGS016	Slavic	Bulgarian	Trekljano	42.5509	22.5970	Trekljano	Trekljano	TREKLJANO	42.6667	22.6667	http://www.geonames.org/726351/obshtina-treklyano.html
04.0.017	BGS017	Slavic	Bulgarian	Stob	42.0955	23.1052	Stob	Stob	STOB	42.1667	23.0833	http://www.geonames.org/726791/stob.html
04.0.018	BGS018	Slavic	Bulgarian	Rakitovo	41.9895	24.0875	Rakitovo	Rakitovo	RAKITOVO	42.0833	24.0000	http://www.geonames.org/727801/rakitovo.html
04.0.019	BGS019	Slavic	Bulgarian	Smolsko	42.6394	23.9429	Smolsko	Smolsko	SMOLSKO	42.7500	24.0000	http://www.geonames.org/6461696/smolsko.html
04.0.020	BGS020	Slavic	Bulgarian	Dăbene	42.5982	24.7659	Dăbene	Dabene	DABENE	42.6667	24.8333	http://www.geonames.org/731873/dubene.html
04.0.021	BGS021	Slavic	Bulgarian	Brestnik	42.0563	24.7677	Brestnik	Brestnik	BRESTNIK	42.0833	24.9167	http://www.geonames.org/732905/brestnik.html
04.0.022	BGS022	Slavic	Bulgarian	Šipka	42.7123	25.3329	Šipka	Sipka	SIPKA	42.7500	25.4167	http://www.geonames.org/727291/shipka.html
04.0.023	BGS023	Slavic	Bulgarian	Karadžalovo	42.0946	25.3138	Karadžalovo	Karadzalovo	KARADZALOVO	42.2500	25.5000	http://www.geonames.org/730622/karadzhalovo.html
04.0.024	BGS024	Slavic	Bulgarian	Korten	42.5445	25.9963	Korten	Korten	KORTEN	42.5833	26.0000	http://www.geonames.org/730143/korten.html
04.0.025	BGS025	Slavic	Bulgarian	Glavan	42.0676	26.1068	Glavan	Glavan	GLAVAN	42.0833	26.0833	http://www.geonames.org/6460328/glavan.html
04.0.026	BGS026	Slavic	Bulgarian	Devetinci	42.6000	26.8333	Devetinci	Devetinci	DEVETINCI	42.5833	26.7500	http://www.geonames.org/732288/devetintsi.html
04.0.027	BGS027	Slavic	Bulgarian	Ružica	42.1522	26.8783	Ružica	Ruzica	RUZICA	42.1667	26.8333	http://www.geonames.org/727493/ruzhitsa.html
04.0.028	BGS028	Slavic	Bulgarian	Stoilovo	42.0387	27.5174	Stoilovo	Stoilovo	STOILOVO	42.0833	27.6667	http://www.geonames.org/726786/stoilovo.html
04.0.029	BGS029	Slavic	Bulgarian	Levunovo	41.4881	23.3045	Levanovo	Levanono	LEVANOVO	41.5000	23.2500	http://www.geonames.org/729634/levunovo.html
04.0.030	BGS030	Slavic	Bulgarian	Tešovo	41.4673	23.6964	Tešovo	Tesovo	TESOVO	41.5833	23.7500	http://www.geonames.org/726465/teshovo.html
04.0.031	BGS031	Slavic	Bulgarian	Smiljan	41.5058	24.7242	Smiljan	Smiljan	SMILJAN	41.5000	25.0000	http://www.geonames.org/6461325/smiljan.html
04.0.032	BGS032	Slavic	Bulgarian	Tihomir	41.3116	25.4965	Tihomir	Tihomor	TIHOMIR	41.5000	25.8333	http://www.geonames.org/726455/tikhomir.html
05.0.001	DKG001	Germanic	Danish	Børglum	57.3653	9.8385	Børglum	Børglum	VENDSYSSEL	57.3333	9.8333	http://www.geonames.org/2623740/borglum.html
05.0.002	DKG002	Germanic	Danish	Sennels	56.9658	8.7954	Sennels	Sennels	THY	57.0000	8.5000	http://www.geonames.org/2614076/sennels.html
05.0.003	DKG003	Germanic	Danish	Tvis	56.3212	8.7069	Tvis	Tvis	VESTJYLLAND NORD	56.3333	8.6667	http://www.geonames.org/2611068/tvis.html
05.0.004	DKG004	Germanic	Danish	Ars	56.8045	9.5102	Ars	Ars	HIMMERLAND VEST	56.8333	9.3333	http://www.geonames.org/2624602/aars.html
05.0.005	DKG005	Germanic	Danish	Houlbjerg	56.3440	9.8725	Houlbjerg	Houlbjerg	OSTJYLLAND NORD	56.3333	9.8333	http://www.geonames.org/2619741/houlbjerg.html
05.0.006	DKG006	Germanic	Danish	Lyngby	56.8435	10.0397	Lyngby	Lyngby	HIMMERLAND OST	56.8333	10.0000	http://www.geonames.org/2617235/lyngby.html
05.0.007	DKG007	Germanic	Danish	Tved	56.2000	10.4333	Tved	Tved	MOLS	56.1667	10.5000	http://www.geonames.org/2611100/tved.html
05.0.008	DKG008	Germanic	Danish	Aal	55.6314	8.2709	Al	Al	VESTJYLLAND SYD	55.5833	8.3333	http://www.geonames.org/2624794/al-plantage.html
05.0.009	DKG009	Germanic	Danish	Vodder	55.2204	8.8440	Vodder	Vodder	SONDERJYLLAND VEST, VESTSLESVIG	55.2500	8.8333	http://www.geonames.org/2610100/vodder.html
05.0.010	DKG010	Germanic	Danish	Barrit	55.7120	9.8906	Barrit	Barrit	OSTJYLLAND SYD	55.7500	9.8333	http://www.geonames.org/2624289/barrit.html
05.0.011	DKG011	Germanic	Danish	Flemløse	55.2505	10.0688	Flemløse	Flemløse	VESTFYN	55.3333	10.0000	http://www.geonames.org/2622098/flemlose.html
05.0.012	DKG012	Germanic	Danish	Revninge	55.4182	10.6560	Revninge	Revninge	OSTFYN	55.4167	10.6667	http://www.geonames.org/2614836/revninge.html
05.0.013	DKG013	Germanic	Danish	Kolby	55.7976	10.5556	Kolby	Kolby	SAMSO	55.8333	10.5833	http://www.geonames.org/2618536/kolby.html
05.0.014	DKG014	Germanic	Danish	Buerup	55.5928	11.3397	Buerup	Buerup	VESTSJAELLAND	55.5000	11.3333	http://www.geonames.org/2623262/buerup.html
05.0.015	DKG015	Germanic	Danish	Lille Lyngby	55.9506	12.1382	Lille Lyngby	Lille_Lyngby	NORDSJAELLAND	55.9167	12.1667	http://www.geonames.org/2617676/lille-lyngby.html
05.0.016	DKG016	Germanic	Danish	Strøby	55.3829	12.2815	Strøby	Strøby	OSTSJAELLAND	55.3333	12.2500	http://www.geonames.org/2612212/stroby.html
05.0.017	DKG017	Germanic	Danish	Felsted	54.9805	9.5013	Felsted	Felsted	SONDERJYLLAND OST, OSTSLESVIG	55.0000	9.5833	http://www.geonames.org/2622239/felsted.html
05.0.018	DKG018	Germanic	Danish	Snøde	55.0816	10.9097	Snøde	Snøde	LANGELAND	55.0000	10.8333	http://www.geonames.org/2613290/snode.html
05.0.019	DKG019	Germanic	Danish	Toreby	54.7530	11.7876	Thoreby	Thoreby	LOLLAND-FALSTER	54.7500	11.6667	http://www.geonames.org/2611452/toreby.html
05.0.020	DKG020	Germanic	Danish	Klemensker	55.1741	14.8067	Klemensker	Klemensker	BORNHOLM, ILE DE	55.0833	15.0000	http://www.geonames.org/2618764/klemensker.html
05.0.301	DEG301	Germanic	NA	Viöl	54.5703	9.1789	Viöl	Viöl	FJOLDE	54.5833	9.1667	http://www.geonames.org/2817154/vioel.html
06.0.001	ESR001	Romance	Galician	Sísamo	43.2135	-8.7153	Sísamo	Sísamo	SISAMO (CORUNA)	43.1167	-8.6667	http://www.geonames.org/3108892/sisamo.html
06.0.002	ESR002	Romance	Galician	Aranga	43.2341	-8.0160	Aranga	Aranga	MONTESALGUEIRO (CORUNA)	43.2500	-7.8333	http://www.geonames.org/3129864/aranga.html
06.0.003	ESR003	Romance	Galician	Cervo	43.6698	-7.4095	Cervo	Cervo	BURELA DE CABO (LUGO)	43.6667	-7.3500	http://www.geonames.org/3125287/cervo.html
06.0.004	ESR004	Romance	Galician	Taramundi	43.3604	-7.1083	Taramundi	Taramundi	TARAMUNDI (OVIEDO)	43.3500	-7.1000	http://www.geonames.org/3108320/taramundi.html
06.0.005	ESR005	Romance	Spanish	Leitariegos	42.9976	-6.4171	Leitariegos	Leirariegos	LEITARIEGOS (OVIEDO)	43.0000	-6.4167	http://www.geonames.org/3123319/el-puerto.html
06.0.006	ESR006	Romance	Spanish	Muros de Nalón	43.5436	-6.1063	Muros de Nalón	Muros_de_Nalón	MUROS DE NALON (OVIEDO)	43.5333	-6.1000	http://www.geonames.org/3115823/muros-de-nalon.html
06.0.007	ESR007	Romance	Spanish	Pola de Laviana	43.2450	-5.5617	Pola de Laviana	Pola_de_Laviana	POLA DE LAVIANA	43.2500	-5.5500	http://www.geonames.org/3113271/pola-de-laviana.html
06.0.008	ESR008	Romance	Spanish	Sotres	43.2332	-4.7482	Sotres	Sotres	SOTRES (AUSTURIAS)	43.2167	-4.7500	http://www.geonames.org/3108572/sotres.html
06.0.009	ESR009	Romance	Spanish	Lores	42.9965	-4.5305	Lores	Lores	LORES (PALENCIA)	43.0000	-4.5333	http://www.geonames.org/6360170/pernia-la.html
06.0.010	ESR010	Romance	Spanish	Oreña	43.3961	-4.1339	Oreña	Orena	ORENA (SATANDER)	43.4000	-4.0833	http://www.geonames.org/3114968/orena.html
06.0.011	ESR011	Romance	Spanish	Campo de Suso	43.0187	-3.9960	Campo de Suso	Campo_de_Sudo	CAMPO DE YUSO (SATANDER)	43.0333	-3.9167	http://www.geonames.org/3119835/la-costana.html
06.0.012	ESR012	Romance	Spanish	Laredo	43.4098	-3.4161	Laredo	Laredo	LAREDO (SATANDER)	43.4000	-3.4000	http://www.geonames.org/3119145/laredo.html
06.0.013	ESR013	Romance	Spanish	Villasana de Mena	43.1000	-3.2833	Villasana de Mena		VILLASANA DE MENA (BURGOS)	43.0833	-3.2667	http://www.geonames.org/3104847/villasana-de-mena.html
06.0.017	ESR017	Romance	Spanish	Vera de Bidasoa	43.2809	-1.6830	Vera de Bidasoa	Vera_de_Bidasoa	VERA DE BIDASOA (NAVARRA)	43.2667	-1.6833	http://www.geonames.org/3106112/bera.html
06.0.018	ESR018	Romance	Galician	Carnota	42.8220	-9.0880	Carnota	Carnota	CARNOTA (CORUNA)	42.8167	-9.0833	http://www.geonames.org/3126254/carnota.html
06.0.019	ESR019	Romance	Galician	O Grove	42.4954	-8.8641	O Grove	O_Grobe	GROVE (PONTEVEDRA)	42.5000	-8.8667	http://www.geonames.org/3121078/o-grove.html
06.0.020	ESR020	Romance	Galician	Avión	42.3755	-8.2515	Avión	Avión	AVION (ORENSE)	42.3833	-8.2500	http://www.geonames.org/3129126/avion.html
06.0.021	ESR021	Romance	Galician	Agolada	42.7617	-8.0206	Agolada	Agolada	GOLADA (PONTEVEDRA)	42.7500	-8.0000	http://www.geonames.org/3122887/esperante.html
06.0.022	ESR022	Romance	Galician	Ríocaldo	41.8715	-8.0994	Ríocaldo	Riocaldo	VILLAMEA (ORENSE)	42.0167	-7.9833	http://www.geonames.org/3111695/riocaldo.html
06.0.023	ESR023	Romance	Galician	Vilarino Frío	42.3175	-7.5413	Vilarino Frío	Vilarinofrío	JUNQUERA DE ESPADANEDO (ORENSE)	42.3167	-7.6000	http://www.geonames.org/3104927/vilarino-frio.html
06.0.024	ESR024	Romance	Galician	Bóveda	42.6230	-7.4852	Bóveda	Bóveda	BOVEDA (LUGO)	42.6167	-7.4833	http://www.geonames.org/3127736/boveda.html
06.0.025	ESR025	Romance	Galician	Campobecerros	42.0669	-7.3321	Campobecerros	Campobacerros	PORTOCAMBA  (ORENSE)	42.0667	-7.3667	http://www.geonames.org/3126780/campobecerros.html
06.0.026	ESR026	Romance	Galician	Baralla	42.8921	-7.2549	Baralla	Neira_de_Xusá	NEIRA DE JUSA (LUGO)	42.8833	-7.2333	http://www.geonames.org/3128828/baralla.html
06.0.027	ESR027	Romance	Galician	Oencia	42.5473	-6.9716	Oencia	Oencia	OENCIA (LEON)	42.5500	-6.9500	http://www.geonames.org/3115244/oencia.html
06.0.028	ESR028	Romance	Spanish	Castrocontrigo	42.1834	-6.1905	Castrocontrigo	Castrocontrige	CASTROCONTRIGO (LEON)	42.1833	-6.1833	http://www.geonames.org/3125679/castrocontrigo.html
06.0.029	ESR029	Romance	Spanish	Villagatón	42.6354	-6.1624	Villagulón	Villagulón	VILLAGULON (LEON)	42.6333	-6.1833	http://www.geonames.org/3105572/villagaton.html
06.0.030	ESR030	Romance	Spanish	La Vecilla	42.8490	-5.4064	La Vecilla	La_Vecilla	LA VECILLA (LEON)	42.8333	-5.4000	http://www.geonames.org/3118728/la-vecilla-de-curueno.html
06.0.031	ESR031	Romance	Spanish	Zorita de la Loma	42.2383	-5.0225	Zorita de la Loma	Zorita_de_la_Loma	ZORITA DE LA LOMA (VALLADOLID)	42.3333	-5.0333	http://www.geonames.org/3104262/zorita-de-la-loma.html
06.0.032	ESR032	Romance	Spanish	Carrión de los Condes	42.3373	-4.6024	Carrión de los Condes	Carrión_de_los_Condes	CARRION DE LOS CONDES (PALENCIA)	42.3333	-4.6167	http://www.geonames.org/3126161/carrion-de-los-condes.html
06.0.033	ESR033	Romance	Spanish	Humada	42.6677	-4.0839	Humada	Humada	HUMADA (BURGOS)	42.6667	-4.0667	http://www.geonames.org/3120503/humada.html
06.0.034	ESR034	Romance	Spanish	Mazuelo de Muño	42.2391	-3.8458	Mazuelo de Muño	Mazuelo_de_Muno	MAZUELO DE MUNO (BURGOS)	42.2500	-3.8500	http://www.geonames.org/3117056/mazuelo-de-muno.html
06.0.035	ESR035	Romance	Spanish	Pancorbo	42.6300	-3.1115	Pancorbo	Pancorbo	PANCORBO (BURGOS)	42.6167	-3.1167	http://www.geonames.org/3114464/pancorbo.html
06.0.036	ESR036	Romance	Spanish	Viniegra de Arriba	42.0949	-2.8331	Viniegra de Arriba	Viniegra_de_Arriba	VINIEGA DE ARRIBA (LOGRONO)	42.1000	-2.8333	http://www.geonames.org/3104566/viniegra-de-arriba.html
06.0.039	ESR039	Romance	Spanish	Galilea	42.3478	-2.2365	Galilea	Galilea	GALILEA (LOGRONO)	42.3667	-2.3000	http://www.geonames.org/3121736/galilea.html
06.0.040	ESR040	Romance	Spanish	Salinas de Oro	42.7755	-1.8893	Salinas de Oro	Salinas_de_Oro	SALINAS DE ORO (NAVARRA)	42.7833	-1.9000	http://www.geonames.org/3111014/salinas-de-oro.html
06.0.041	ESR041	Romance	Spanish	Sos del Rey Católico	42.4936	-1.2175	Sos del Rey Católico	Sos_del_Rey_Católico	SOS DEL REY CATOLICO (ZARAGOZA)	42.5000	-1.2167	http://www.geonames.org/3108656/sos-del-rey-catolico.html
06.0.042	ESR042	Romance	Spanish	Hecho	42.7383	-0.7500	Hecho	Hecho	HECHO (HUESCA)	42.7500	-0.7500	http://www.geonames.org/3120867/hecho.html
06.0.043	ESR043	Romance	Spanish	Angüés	42.1108	-0.1536	Angüés	Angüés	ANGUES (HUESCA)	42.1167	-0.1667	http://www.geonames.org/3130021/anguees.html
06.0.044	ESR044	Romance	Spanish	Fanlo	42.5874	-0.0213	Fanlo	Fanlo	FANLO (HUESCA)	42.5833	-0.0167	http://www.geonames.org/3122647/fanlo-del-valle-de-vio.html
06.0.045	ESR045	Romance	Spanish	Noales	42.4586	0.6628	Noales	Noales	NOALES (HUESCA)	42.2500	0.4833	http://www.geonames.org/3115444/noales.html
06.0.046	ESR046	Romance	Galician	A Guarda	41.9010	-8.8733	Salcidos	La_Guardia	LA GUARDIA (PONTE VEDRA)	41.9000	-8.8833	http://www.geonames.org/3119646/a-guarda.html
06.0.047	ESR047	Romance	Galician	Hermisende	41.9683	-6.8961	Hermisende	Hermisende	HERMISENDE (ZAMORA)	41.9667	-6.8833	http://www.geonames.org/3120818/hermisende.html
06.0.048	ESR048	Romance	Spanish	Fermoselle	41.3166	-6.3940	Fermoselle	Fermoselle	FERMOSELLE (ZAMORA)	41.3167	-6.4000	http://www.geonames.org/3122558/fermoselle.html
06.0.049	ESR049	Romance	Spanish	Pozuelo de Tábara	41.7854	-5.8954	Pozuelo de Tábara	Pozuelo_de_Tábara	POZUELO DE TABARA (ZAMORA)	41.7833	-5.9000	http://www.geonames.org/3112984/pozuelo-de-tabara.html
06.0.050	ESR050	Romance	Spanish	Venialbo	41.3896	-5.5368	Venialbo	Venialbo	VENIALBO (ZAMORA)	41.3833	-5.5333	http://www.geonames.org/3106173/venialbo.html
06.0.051	ESR051	Romance	Spanish	Mota del Marqués	41.6283	-5.1764	Mota del Marqués	Mota_der_Marqués	MOTA DEL MARQUES (VALLADOLID)	41.6333	-5.1833	http://www.geonames.org/6362224/mota-del-marques.html
06.0.052	ESR052	Romance	Spanish	Madrigal de las Atlas	41.0902	-5.0030	Madrigal de las Atlas Torres	Madrigal_de_las_Atlas	MADRIGAL DE LAS ALTAS TORRES (AVILA)	41.0833	-5.0000	http://www.geonames.org/3117728/madrigal-de-las-altas-torres.html
06.0.053	ESR053	Romance	Spanish	Íscar	41.3610	-4.5328	Íscar	Iscar	ISCAR (VALLADOLID)	41.3500	-4.5500	http://www.geonames.org/3120288/iscar.html
06.0.054	ESR054	Romance	Spanish	Alba de Cerrato	41.8115	-4.3649	Alba de Cerrato	Alba_de_Cerrato	ALBA DE CERRATO (PALENCIA)	41.8000	-4.3833	http://www.geonames.org/3130708/alba-de-cerrato.html
06.0.055	ESR055	Romance	Spanish	Valcavado de Roa	41.6874	-3.9933	Valcavado de Roa	Valcavado	VALCAVADO DE ROA (BURGOS)	41.7000	-3.9167	http://www.geonames.org/3107054/valcavado-de-roa.html
06.0.056	ESR056	Romance	Spanish	Sepúlveda	41.2974	-3.7489	Sepúlveda	Sepúlveda	SEPULVEDA (SEGOVIA)	41.3000	-3.7500	http://www.geonames.org/3109139/sepulveda.html
06.0.057	ESR057	Romance	Spanish	Montejo de la Sierra	41.0595	-3.5297	Montejo de la Sierra	Montejo_de_la_Sierra	MONTEJO DE LA SIERRA (MADRID)	41.0667	-3.5333	http://www.geonames.org/3116345/montejo-de-la-sierra.html
06.0.058	ESR058	Romance	Spanish	Castillejo de Robledo	41.5601	-3.4947	Castillejo de Robledo	Castillejo_de_Robledo	CASTILLEJO DE ROBLEDO (SORIA)	41.5500	-3.5000	http://www.geonames.org/3125816/castillejo-de-robledo.html
06.0.059	ESR059	Romance	Spanish	Almazán	41.4859	-2.5332	Almazán	Almazán	ALMAZAN (SORIA)	41.4833	-2.5167	http://www.geonames.org/3130313/almazan.html
06.0.060	ESR060	Romance	Spanish	Almaluez	41.2881	-2.2686	Almaluez	Almaluez	ALMALUEZ (SORIA)	41.2833	-2.2500	http://www.geonames.org/3130325/almaluez.html
06.0.061	ESR061	Romance	Spanish	Borobia	41.6650	-1.8966	Borovia	Borovia	BOROBIA (SORIA)	41.6667	-1.9000	http://www.geonames.org/3127790/borobia.html
06.0.062	ESR062	Romance	Spanish	La Almunia de Doña Godina	41.4768	-1.3747	La Almunia de Doña Godina	La_Almunia_de_Dona_Godina	LA ALMUNIA DE DONA GODINA (ZARAGOZA)	41.1333	-1.6500	http://www.geonames.org/3120012/la-almunia-de-dona-godina.html
06.0.063	ESR063	Romance	Spanish	Ribaforada	41.9965	-1.5136	Ribaforada	Ribaforada	RIBAFORADA (NAVARRA)	41.9833	-1.5500	http://www.geonames.org/3111845/ribaforada.html
06.0.064	ESR064	Romance	Spanish	Zuera	41.8685	-0.7901	Zuera	Zuera	ZUERA (ZARAGOZA)	41.8167	-0.6167	http://www.geonames.org/3104226/zuera.html
06.0.065	ESR065	Romance	Spanish	Híjar	41.1732	-0.4491	Híjar	Híjar	HIJAR (TERUEL)	41.1667	-0.4500	http://www.geonames.org/3120763/hijar.html
06.0.066	ESR066	Romance	Spanish	Pallaruelo de Monegros	41.7051	-0.2086	Pallaruelo de Monegros	Pallaruelo_de_Monegros	PALLARUELO DE MONEGROS (HUESCA)	41.7000	-0.2167	http://www.geonames.org/3114519/pallaruelo-de-monegros.html
06.0.067	ESR067	Romance	Spanish	Pozán de Vero	42.0816	0.0329	Pozán de Vero	Pozán_de_Vero	POZAN DE VERO (HUESCA)	41.9833	0.3167	http://www.geonames.org/3113021/pozan-de-vero.html
06.0.068	ESR068	Romance	Spanish	Fraga	41.5218	0.3417	Fraga	Fraga	FRAGA (HUESCA)	41.5333	0.3500	http://www.geonames.org/3122157/fraga.html
06.0.069	ESR069	Romance	Spanish	Navasfrías	40.2972	-6.8210	Navasfrías	Navasfrias	NAVASFRIAS (SALAMANCA)	40.3000	-6.8167	http://www.geonames.org/3115580/navasfrias.html
06.0.070	ESR070	Romance	Spanish	Ahigal de los Aceiteros	40.8731	-6.7474	Ahigal de los Aceiteros	Ahigal_de_los_Aceiteros	AHIGAL DE LOS ACEITEROS (SALAMANCA)	40.8667	-6.7500	http://www.geonames.org/3130791/ahigal-de-los-aceiteros.html
06.0.071	ESR071	Romance	Spanish	La Pesga	40.3251	-6.1748	La Pesga	La_Pesga	LA PESGA (CACERES)	40.3333	-6.1667	http://www.geonames.org/3119236/la-pesga.html
06.0.072	ESR072	Romance	Spanish	Rollán	40.9621	-5.9185	Rollán	Rollán	ROLLAN (SALAMANCA)	40.9667	-5.9167	http://www.geonames.org/3111407/rollan.html
06.0.073	ESR073	Romance	Spanish	Pedraza de Alba	40.7548	-5.3763	Pedraza de Alba	Pedraza_de_Alba	PEDRAZA DE ALBA (SALAMANCA)	40.7500	-5.4000	http://www.geonames.org/3114131/pedraza-de-alba.html
06.0.074	ESR074	Romance	Spanish	Las Ventas de San Julián	40.0086	-5.2939	Las Ventas de San Julián	Las_Ventas_de_San_Julián	LAS VENTAS DE SAN JULIAN (TOLEDO)	40.0000	-5.3000	http://www.geonames.org/2515206/las-ventas-de-san-julian.html
06.0.075	ESR075	Romance	Spanish	Garganta del Villar	40.4502	-5.1038	Garganta del Villar	Garganta_del_Villar	GARGANTA DEL VILLAR (AVILA)	40.4333	-5.1000	http://www.geonames.org/3121589/garganta-del-villar.html
06.0.076	ESR076	Romance	Spanish	Laguna Rodrigo	40.9794	-4.4600	Laguna Rodrigo	Laguna_Rodrigo	LAGUNA RODRIGO (SEGOVIA)	40.9667	-4.4667	http://www.geonames.org/3119627/laguna-rodrigo.html
06.0.077	ESR077	Romance	Spanish	Navalperal de Pinares	40.5919	-4.4111	Navalperal de Pinares	Navalperal_de_Pinares	NAVALPERAL DE PINARES (AVILA)	40.5833	-4.4167	http://www.geonames.org/3115634/navalperal-de-pinares.html
06.0.078	ESR078	Romance	Spanish	Soto del Real	40.7528	-3.7910	Chozas de la Sierra	Chozas_de_la_Sierra	CHOZAS DE LA SIERRA (MADRID)	40.7500	-3.7667	http://www.geonames.org/6359363/soto-del-real.html
06.0.079	ESR079	Romance	Spanish	Madrid	40.4168	-3.7038	Madrid	Madrid	MADRID (MADRID)	40.4167	-3.7167	http://www.geonames.org/3117735/madrid.html
06.0.080	ESR080	Romance	Spanish	Escariche	40.4079	-3.0567	Escariche	Escariche	ESCARICHE (GUADALAJARA)	40.4167	-3.0500	http://www.geonames.org/3123001/escariche.html
06.0.081	ESR081	Romance	Spanish	Navalpotro	40.9280	-2.5975	Navalpotro	Navalpotro	NAVALPOTRO (GUADALAJARA)	40.9167	-2.6000	http://www.geonames.org/3115632/navalpotro.html
06.0.082	ESR082	Romance	Spanish	El Pozuelo	40.6203	-2.2769	El Pozuelo	El_Pozuelo	EL POZUELO (CUENCA)	40.6167	-2.2500	http://www.geonames.org/3123330/el-pozuelo.html
06.0.083	ESR083	Romance	Spanish	Canete, Cuenca	40.0500	-1.6500	Canete	Canete	CANETE (CUENCA)	40.0500	-1.6500	http://www.geonames.org/3126582/canete.html
06.0.084	ESR084	Romance	Spanish	Villar del Salz	40.6819	-1.4996	Villa del Salz	Villa_del_Saz	VILLAR DEL SALZ (TERUEL)	40.6833	-1.5000	http://www.geonames.org/3105038/villar-del-salz.html
06.0.085	ESR085	Romance	Spanish	Arcos de Salinas	39.9936	-1.0428	Arcos de Salinas	Arcos_de_Salinas	ARCOS DE SALINAS (TERUEL)	40.0000	-1.0500	http://www.geonames.org/2521664/arcos-de-las-salinas.html
06.0.086	ESR086	Romance	Spanish	Montalbán, Teruel	40.8327	-0.8002	Montalbán	Montalbán	MONTALBAN (TERUEL)	40.8333	-0.8000	http://www.geonames.org/3116441/montalban.html
06.0.087	ESR087	Romance	Spanish	Alcalá de la Selva	40.3720	-0.7197	Alcalá de la Selva	Alcalá_de_la_Selva	ALCALA DE LA SELVA (TERUEL)	40.3667	-0.7167	http://www.geonames.org/3130615/alcala-de-la-selva.html
06.0.088	ESR088	Romance	Spanish	Mayorga	39.2614	-7.1301	Mayorga	Mayorga	MAYORGA (BADAJOZ)	39.2500	-7.0833	http://www.geonames.org/2518525/el-convento.html
06.0.089	ESR089	Romance	Spanish	Ceclavín	39.8222	-6.7733	Ceclavín	Ceclavín	CECLAVIN (CACERES)	39.8167	-6.7833	http://www.geonames.org/2519659/ceclavin.html
06.0.090	ESR090	Romance	Spanish	Robledillo de Trujillo	39.2691	-5.9800	Robledillo de Trujillo	Robledillo_de_Trujillo	ROBLEDILLO DE TRUJILLO (CACERES)	39.2667	-5.9833	http://www.geonames.org/2511781/robledillo-de-trujillo.html
06.0.091	ESR091	Romance	Spanish	Majadas	39.9423	-5.7464	Majadas	Majadas	MAJADAS (CACERES)	39.9500	-5.7500	http://www.geonames.org/2514279/majadas.html
06.0.092	ESR092	Romance	Spanish	Helechosa de los Montes	39.3120	-4.9078	Helechosa	Helechosa	HELECHOSA (BADAJOZ)	39.3167	-4.9000	http://www.geonames.org/2516801/helechosa.html
06.0.093	ESR093	Romance	Spanish	San Pablo, Toledo	39.5402	-4.3317	San Pablo	San_Pablo	SAN PABLO (TOLEDO)	39.5500	-4.3167	http://www.geonames.org/2511271/san-pablo.html
06.0.094	ESR094	Romance	Spanish	Ontígola	40.0097	-3.5724	Ontígola	Ontígola	ONTIGOLA (TOLEDO)	39.9667	-3.5667	http://www.geonames.org/2513104/ontigola.html
06.0.095	ESR095	Romance	Spanish	Villafranca de los Caballeros	39.4263	-3.3600	Villafranca de los Caballeros	Villafranca	VILLAFRANCA DE LOS CABALLEROS (TOLEDO)	39.4333	-3.3500	http://www.geonames.org/2509597/villafranca-de-los-caballeros.html
06.0.096	ESR096	Romance	Spanish	Uclés	39.9800	-2.8633	Uclés	Uclés	UCLES (CUENCA)	39.9667	-2.8667	http://www.geonames.org/2510106/ucles.html
06.0.097	ESR097	Romance	Spanish	Las Mesas	39.3878	-2.7643	Las Mesas	Les_Mesas	LAS MESAS (CUENCA)	39.4000	-2.7500	http://www.geonames.org/2515319/las-mesas.html
06.0.098	ESR098	Romance	Spanish	Albacete	38.9943	-1.8585	Albacete	Albacete	ALBACETE (ALBACETE)	39.0000	-1.8667	http://www.geonames.org/2522258/albacete.html
06.0.099	ESR099	Romance	Spanish	Enguídanos	39.6736	-1.6063	Enguídanos	Enguídanos	ENGUIDANOS (CUENCA)	39.6667	-1.6167	http://www.geonames.org/2518009/enguidanos.html
06.0.100	ESR100	Romance	Spanish	Encinasola	38.1382	-6.8713	Encinasola	Encinasola	ENCINASOLA (HUELVA)	38.1500	-6.8833	http://www.geonames.org/2518020/encinasola.html
06.0.101	ESR101	Romance	Spanish	Solana de los Barros	38.7228	-6.5396	Solana de los Barros	Solana_de_los_Barros	SOLANA DE LOS BARROS (BADAJOZ)	38.7333	-6.5500	http://www.geonames.org/2510839/solana-de-los-barros.html
06.0.102	ESR102	Romance	Spanish	Monesterio	38.0890	-6.2727	Monesterio	Monesterio	MONESTERIO (BADAJOZ)	38.0833	-6.2667	http://www.geonames.org/2513692/monesterio.html
06.0.103	ESR103	Romance	Spanish	Higuera de la Serena	38.6453	-5.7412	Higuera de la Serena	Higuera_de_la_Serena	HIGUERA DE LA SERENA (BADAJOZ)	38.6500	-5.7500	http://www.geonames.org/2516731/higuera-de-la-serena.html
06.0.104	ESR104	Romance	Spanish	Villanueva Del Duque	38.3931	-4.9987	Villanueva Del Duque	Villanueva_Del_Duque	VILLANUEVA DEL DUQUE (CORDOBA)	38.3333	-5.0000	http://www.geonames.org/2509551/villanueva-del-duque.html
06.0.105	ESR105	Romance	Spanish	Almadén	38.7745	-4.8326	Almadén	Almadén	ALMADEN (CIUDAD REAL)	38.7833	-4.8333	http://www.geonames.org/2521938/almaden.html
06.0.106	ESR106	Romance	Spanish	Ciudad Real	38.9848	-3.9274	Ciudad Real	Ciudad_Real	CIUDAD REAL (CIUDAD REAL)	38.9833	-3.9167	http://www.geonames.org/2519402/ciudad-real.html
06.0.107	ESR107	Romance	Spanish	Aldeaquemada	38.4116	-3.3729	Aldeaquemada	Aldeaquemada	ALDEAQUEMADA (JAEN)	38.4167	-3.3667	http://www.geonames.org/2522065/aldeaquemada.html
06.0.108	ESR108	Romance	Spanish	Villanueva de la Fuente	38.6928	-2.6959	Villanueva de la Fuente	Villanueva_de_la_Fuente	VILLANUEVA DE LA FUENTE (CIUDAD REAL)	38.7000	-2.7000	http://www.geonames.org/2509560/villanueva-de-la-fuente.html
06.0.109	ESR109	Romance	Spanish	Nerpio	38.1478	-2.2988	Nerpio	Nerpio	NERPIO (ALBACETE)	38.1500	-2.3000	http://www.geonames.org/2513238/nerpio.html
06.0.110	ESR110	Romance	Spanish	Ricote	38.1537	-1.3656	Ricote	Ricote	RICOTE (MURCIA)	38.1667	-1.3500	http://www.geonames.org/2511869/ricote.html
06.0.111	ESR111	Romance	Spanish	Ayamonte	37.2141	-7.4043	Ayamonte	Ayamonte	AYAMONTE (HUELVA)	37.2167	-7.4000	http://www.geonames.org/2521456/ayamonte.html
06.0.112	ESR112	Romance	Spanish	Paterna del Campo	37.4193	-6.4021	Paterna del Campo	Paterna_del_Campo	PATERNA DEL CAMPO (HUELVA)	37.4167	-6.4000	http://www.geonames.org/2512860/paterna-del-campo.html
06.0.113	ESR113	Romance	Spanish	Navas de la Concepción	37.9325	-5.4660	Navas de la Concepción	Navas_de_la_Concepción	NAVAS DE LA CONCEPCION (SEVILLA)	37.9333	-5.4667	http://www.geonames.org/2515305/las-navas-de-la-concepcion.html
06.0.114	ESR114	Romance	Spanish	Casariche	37.2938	-4.7627	Casariche	Casariche	CASARICHE (SEVILLA)	37.3000	-4.7500	http://www.geonames.org/2519979/casariche.html
06.0.115	ESR115	Romance	Spanish	Baena	37.6174	-4.3245	Baena	Baena	BAENA (CORDOBA)	37.6167	-4.3333	http://www.geonames.org/2521415/baena.html
06.0.116	ESR116	Romance	Spanish	Arjonilla	37.9745	-4.1066	Arjonilla	Arjonilla	ARJONILLA (JAEN)	37.9833	-4.1000	http://www.geonames.org/2521593/arjonilla.html
06.0.117	ESR117	Romance	Spanish	Iznalloz	37.3926	-3.5199	Iznalloz	Iználloz	IZNALLOZ (GRANADA)	37.4000	-3.5000	http://www.geonames.org/2516414/iznalloz.html
06.0.118	ESR118	Romance	Spanish	Larva	37.7594	-3.2024	Larva	Larva	LARVA (JAEN)	37.7500	-3.2167	http://www.geonames.org/2515543/larva.html
06.0.119	ESR119	Romance	Spanish	Alcóntar	37.3360	-2.5975	Alcóntar	Alcóntar	ALCONTAR (ALMERIA)	37.3333	-2.5833	http://www.geonames.org/2522108/alcontar.html
06.0.120	ESR120	Romance	Spanish	Cúllar Baza	37.5828	-2.5706	Cúllar Baza	Cúllar_Baza	GULLAR (DE) BAZA (GRANADA)	37.5833	-2.5667	http://www.geonames.org/2518951/cullar-de-baza.html
06.0.121	ESR121	Romance	Spanish	Carboneras	36.9968	-1.8947	Carboneras	Carboneros	CARBONERAS (ALMERIA)	37.0000	-1.8833	http://www.geonames.org/2520163/carboneras.html
06.0.122	ESR122	Romance	Spanish	Zarcilla de Ramos	37.8441	-1.8763	Zarcillo de Ramos	Zarcillo_de_Ramos	ZARCILLA DE RAMOS (MURCIA)	37.8333	-1.8833	http://www.geonames.org/2509342/zarcilla-de-ramos.html
06.0.123	ESR123	Romance	Spanish	Aguilas	37.4118	-1.5828	Aguilas	Aguilas	AGUILAS (MURCIA)	37.4167	-1.5833	http://www.geonames.org/2522333/aguilas.html
06.0.124	ESR124	Romance	Spanish	Jerez de la Frontera	36.6850	-6.1261	Jerez de la Frontera	Jerez_de_la_Frontera	JEREZ DE LA FRONTERA (CADIZ)	36.6833	-6.1333	http://www.geonames.org/2516326/jerez-de-la-frontera.html
06.0.125	ESR125	Romance	Spanish	Las Cabezas de San Juan	36.9803	-5.9383	Cabezas de San Juan	Cabezas_de_Can_Juan	CABEZAS DE SAN JUAN (SEVILLA)	36.9833	-5.9333	http://www.geonames.org/2515493/las-cabezas-de-san-juan.html
06.0.126	ESR126	Romance	Spanish	Algeciras	36.1318	-5.4486	Algeciras	Algeciras	ALGECIRAS (CADIZ)	36.1333	-5.4500	http://www.geonames.org/2522013/algeciras.html
06.0.127	ESR127	Romance	Spanish	Setenil	36.8624	-5.1764	Setenil	Setenil	SETENIL (CADIZ)	36.8667	-5.1667	http://www.geonames.org/2510915/setenil-de-las-bodegas.html
06.0.128	ESR128	Romance	Spanish	Estepona	36.4268	-5.1467	Estepona	Espona	ESTEPONA (MALAGA)	36.4333	-5.1500	http://www.geonames.org/2517816/estepona.html
06.0.129	ESR129	Romance	Spanish	Riogordo	36.9164	-4.2930	Riogordo	Ríogordo	RIOGORDO (MALAGA)	36.9167	-4.3000	http://www.geonames.org/2511825/riogordo.html
06.0.130	ESR130	Romance	Spanish	Albunol	36.7922	-3.2024	Albunol	Albunol	ALBUNOL (GRANADA)	36.8000	-3.1833	http://www.geonames.org/2522187/albunol.html
06.2.201	ESR201	Romance	Catalan	Taüll	42.5195	0.8486	Taüll	Taüll	TAUELL (LERIDA)	42.5167	0.8500	http://www.geonames.org/3108406/tauell.html
06.2.202	ESR202	Romance	Catalan	Peramola	42.0619	1.2728	Peramola	Peramola	PERAMOLA (LERIDA)	42.0667	1.2667	http://www.geonames.org/3113792/peramola.html
06.2.203	ESR203	Romance	Catalan	Sant Privat d'en Bas	42.1502	2.4185	Sant Privat d'en Bas	Sant_Privat_d'en_Bas	SANT PRIVAT D'EN BAS (GERONE)	42.1333	2.4167	http://www.geonames.org/3110108/sant-privat-d-en-bas.html
06.2.204	ESR204	Romance	Catalan	Llançà	42.3654	3.1594	Llançà	Llançà	LLANCA (GERONE)	42.3667	3.1500	http://www.geonames.org/6534076/llanca.html
06.2.205	ESR205	Romance	Catalan	Riba-roja d'Ebre	41.2500	0.4833	Riba-roja 	Riba-roja	RIBA-ROJA (TARRAGONE)	41.2500	0.4833	http://www.geonames.org/3111837/riba-roja-d-ebre.html
06.2.206	ESR206	Romance	Catalan	Almenar	41.7971	0.5681	Almenar	Almenar	ALMENAR (LERIDA)	41.7833	0.5667	http://www.geonames.org/3130306/almenar.html
06.2.207	ESR207	Romance	Catalan	La Torre de Fontaubella	41.1246	0.8648	La Torre de Fontaubella	La_Torre_de_Fontaubella	LA TORRE DE FONTAUBELLA (TARRAGONE)	41.1167	0.8667	http://www.geonames.org/6361393/la-torre-de-fontaubella.html
06.2.208	ESR208	Romance	Catalan	Arbeca	41.5426	0.9235	Arbeca	Arbeca	ARBECA (LERIDA)	41.5333	0.9333	http://www.geonames.org/3129809/arbeca.html
06.2.209	ESR209	Romance	Catalan	Freixenet de Segarra	41.6611	1.3956	Freixenet de Segarra	Freixenet_de_Segarra	FREIXENET DE SEGARRA (LERIDA)	41.6667	1.4000	http://www.geonames.org/6358925/sant-guim-de-freixenet.html
06.2.210	ESR210	Romance	Catalan	Sant Jaume Sesoliveres	41.4711	1.7508	Sant Jaume Sesoliveres	Sant_Jaume_Sesoliveres	SANT JAUME SESOLIVERES (COMM. DE PIERA)	41.4167	1.5000	http://www.geonames.org/3109552/sant-jaume-sas-oliveras.html
06.2.211	ESR211	Romance	Catalan	Moià	41.8099	2.0972	Moià	Moià	MOIA (BARCELONA)	41.8000	2.1000	http://www.geonames.org/6356167/moia.html
06.2.212	ESR212	Romance	Catalan	Barcelona	41.3851	2.1734	Barcelona	Barcelona	BARCELONA (BARCELONA)	41.3833	2.1833	http://www.geonames.org/6544106/ciutat-vella.html
06.2.213	ESR213	Romance	Catalan	Llagostera	41.8266	2.8930	Llagostera	Llagostera	LLAGOSTERA (GERONE)	41.8333	2.9000	http://www.geonames.org/3118340/llagostera.html
06.2.214	ESR214	Romance	Catalan	Sorita	40.7288	-0.1665	Sorita	Sorita	SORITA (CASTELLO)	40.6667	-0.1667	http://www.geonames.org/3104261/zorita-del-maestrazgo.html
06.2.215	ESR215	Romance	Catalan	Albocàsser	40.3567	0.0251	Albocàsser	Albocàsser	ALBOCASSER (CASTELLO)	40.3500	0.0167	http://www.geonames.org/3130637/albocasser.html
06.2.216	ESR216	Romance	Catalan	Amposta	40.7068	0.5802	Amposta	Amposta	AMPOSTA (TARAGONE)	40.7167	0.5667	http://www.geonames.org/6361257/amposta.html
06.2.217	ESR217	Romance	Catalan	Alzira	39.1512	-0.4334	Alzira	Alzira	ALZIRA (VALENCIA)	39.1333	-0.4667	http://www.geonames.org/2522129/alzira.html
06.2.218	ESR218	Romance	Catalan	València	39.4699	-0.3763	València	València	VALENCIA (VALENCIA)	39.4833	-0.4000	http://www.geonames.org/2509954/valencia.html
06.2.219	ESR219	Romance	Catalan	Castelló de la Plana	39.9854	-0.0373	Castelló de la Plana	Castelló_de_la_Plana	CASTELLO DE LA PLANA (CASTELLO)	39.9667	-0.0500	http://www.geonames.org/2519752/castello-de-la-plana.html
06.2.220	ESR220	Romance	Catalan	Novelda	38.3841	-0.7668	Novelda	Novelda	NOVELDA (ALACANT)	38.4167	-0.7167	http://www.geonames.org/2513195/novelda.html
06.2.221	ESR221	Romance	Catalan	Ontinyent	38.8221	-0.6064	Ontinyent	Ontinyent	ONTINYENT (VALENCIA)	38.8333	-0.6333	http://www.geonames.org/2521374/balneario.html
06.2.222	ESR222	Romance	Catalan	Altea	38.6029	-0.0451	Altea	Altea	ALTEA (ALACANT)	38.5500	-0.0833	http://www.geonames.org/2515014/llano-del-castillo.html
06.2.223	ESR223	Romance	Catalan	Santanyí	39.3539	3.1303	Santanyí	Santanyí	SANTANYI (MAJORQUE)	39.3500	3.1333	http://www.geonames.org/2511106/santanyi.html
06.2.224	ESR224	Romance	Catalan	Ciutadella	39.9991	3.8389	Ciutadella	Ciutadella	CIUTADELLA (MINORQUE)	40.0000	3.8333	http://www.geonames.org/3124967/ciutadella.html
06.2.225	ESR225	Romance	Catalan	Eivissa	38.9095	1.4335	Eivissa	Eivissa	EIVISSA (IBIZA)	38.8667	1.4167	http://www.geonames.org/6695972/es-cana.html
07.0.001	FIF001	Finnic	Finnish	Rovaniemi	66.4970	25.7250	Rovaniemi	Rovaniemi	ROVANIEMI	66.5000	25.5000	http://www.geonames.org/638936/rovaniemi.html
07.0.002	FIF002	Finnic	Finnish	Himanka	64.0583	23.6500	Himanka	Himanka	HIMANKA	64.0833	23.6667	http://www.geonames.org/657838/himanka.html
07.0.003	FIF003	Finnic	Finnish	Nivala	63.9250	24.9750	Nivala	Nivala	NIVALA	64.0000	25.0000	http://www.geonames.org/644499/nivala.html
07.0.004	FIF004	Finnic	Finnish	Utajärvi	64.7614	26.4164	Utajärvi	Utajärvi	UTAJAERVI	64.7500	26.5000	http://www.geonames.org/633295/utajaervi.html
07.0.005	FIF005	Finnic	Finnish	Ristijärvi	64.5051	28.2071	Ristijärvi	Ristijärvi	RISTIJAERVI	64.5000	28.5000	http://www.geonames.org/639234/ristijaervi.html
07.0.006	FIF006	Finnic	Finnish	Nilsiä	63.2038	28.0865	Nilsiä	Nilsiä	NILSIAE	63.3333	28.0000	http://www.geonames.org/644632/nilsiae.html
07.0.007	FIF007	Finnic	Finnish	Nurmo	62.8278	22.9083	Nurmo	Nurmo	NURMO	62.6667	23.0833	http://www.geonames.org/644159/nurmo.html
07.0.008	FIF008	Finnic	Finnish	Konginkangas	62.7799	25.8045	Konginkangas	Konginkangas	KONGINKANGAS	62.6667	25.8333	http://www.geonames.org/651713/konginkangas.html
07.0.009	FIF009	Finnic	Finnish	Kangasniemi	61.9881	26.6419	Kangasniemi	Kangasniemi	KANGASNIEMI	62.0000	26.6667	http://www.geonames.org/654405/kangasniemi.html
07.0.010	FIF010	Finnic	Finnish	Kiihtelysvaara	62.4931	30.2512	Kiihtelysvaara	Kiihtelysvaara	KIIHTELYSVAARA	62.5000	30.3333	http://www.geonames.org/652891/kiihtelysvaara.html
07.0.011	FIF011	Finnic	Finnish	Pyhäranta	60.9502	21.4446	Pyhäranta	Pyhäranta	PYHAERANTA	61.0000	21.3333	http://www.geonames.org/852790/leivonmaeki.html
07.0.012	FIF012	Finnic	Finnish	Vampula	61.0220	22.7039	Vampula	Vampula	VAMPULA	61.0833	22.6667	http://www.geonames.org/632539/vampula.html
07.0.013	FIF013	Finnic	Finnish	Hämeenkyrö	61.6383	23.1963	Hämeenkyrö	Hämeenkyrö	HAEMEENKYROE	61.6667	23.4167	http://www.geonames.org/659184/haemeenkyroe.html
07.0.014	FIF014	Finnic	Finnish	Hattula	61.0500	24.3667	Hattula	Hattula	HATTULA	60.9167	24.1667	http://www.geonames.org/642622/parola.html
07.0.015	FIF015	Finnic	Finnish	Jämsä	61.8638	25.1896	Jämsä	Jämsä	JAEMSAE	61.9167	25.2500	http://www.geonames.org/656083/jaemsae.html
07.0.016	FIF016	Finnic	Finnish	Hollola	60.9941	25.5057	Hollola	Hollola	HOLLODA	61.0000	25.5000	http://www.geonames.org/657531/hollola.html
07.0.017	FIF017	Finnic	Finnish	Iitti	60.8911	26.3361	Iitti/Jaala	Iitti	IITTI JAALA	61.0833	26.1667	http://www.geonames.org/653492/kausala.html
07.0.018	FIF018	Finnic	Finnish	Juva	61.8947	27.8618	Juva	Juva	JUVA	61.7500	27.7500	http://www.geonames.org/655253/juva.html
07.0.019	FIF019	Finnic	Finnish	Pöytyä	60.7198	22.6037	Pöytyä	Pöytyä	POEYTYAE	60.7500	22.6667	http://www.geonames.org/639417/riihikoski.html
07.0.020	FIF020	Finnic	Finnish	Sauvo	60.3435	22.6954	Sauvo	Sauvo	SAUVO	60.3333	22.7500	http://www.geonames.org/637400/sauvo.html
07.0.021	FIF021	Finnic	Finnish	Perniö	60.2036	23.1253	Perniö	Perniö	PERNIOE	60.2500	23.1667	http://www.geonames.org/642113/pernioe.html
07.0.022	FIF022	Finnic	Finnish	Vihti	60.4167	24.3167	Vihti	Vihti	VIHTI	60.4167	24.3333	http://www.geonames.org/635869/suksela.html
07.0.023	FIF023	Finnic	Finnish	Kymi	60.5389	26.9064	Kymi	Kymi	KYMI	60.5000	26.9167	http://www.geonames.org/654137/karhula.html
07.0.101	FIF101	Finnic	Finnish	Kittilä	67.6500	24.9083	Kittilä	Kittilä	KITTILAE	67.7500	25.0000	http://www.geonames.org/652590/kittilae.html
07.0.102	FIF102	Finnic	Finnish	Karunki	66.0500	23.9500	Karunki	Karunki	KARUNKI	66.0833	24.0000	http://www.geonames.org/653831/karunki.html
07.0.103	FIF103	Finnic	Finnish	Ylitornio	66.3167	23.6667	Ylitornio	Ylitornio	YLITORNIO	66.4167	24.3333	http://www.geonames.org/630779/ylitornio.html
07.0.104	FIF104	Finnic	Finnish	Tervola	66.0805	24.8109	Tervola	Tervola	TERVOLA	66.0833	24.8333	http://www.geonames.org/634592/tervola.html
07.0.105	FIF105	Finnic	Finnish	Kemijärvi	66.7136	27.4292	Kemijärvi	Kemijärvi	KEMIJAERVI	66.6667	27.4167	http://www.geonames.org/655251/juvaelae.html
07.0.106	FIF106	Finnic	Finnish	Kuusamo	65.9646	29.1888	Kuusamo	Kuusamo	KUUSAMO	66.0000	29.2500	http://www.geonames.org/649924/kuusamo.html
07.0.107	FIF107	Finnic	Finnish	Hailuoto	65.0141	24.7303	Hailuoto	Hailuoto	HAILUOTO	65.0000	24.6667	http://www.geonames.org/843800/kittilaennurkka.html
07.0.108	FIF108	Finnic	Finnish	Ii	65.3174	25.3731	Ii	Ii	II	65.4167	25.5833	http://www.geonames.org/656851/ii.html
07.0.109	FIF109	Finnic	Finnish	Pudasjärvi	65.3619	26.9859	Pudasjärvi	Pudasjärvi	PUDASJAERVI	65.4167	27.0000	http://www.geonames.org/645643/mursu.html
07.0.110	FIF110	Finnic	Finnish	Suomussalmi	64.8841	28.9117	Suomussalmi	Suomussalmi	SUOMUSSALMI	65.0833	29.1667	http://www.geonames.org/661237/aemmaensaari.html
07.0.111	FIF111	Finnic	Finnish	Kalajoki	64.2667	23.9500	Kalajoki	Kalajoki	KALAJOKI	64.3333	24.0000	http://www.geonames.org/648312/lepistoenperae.html
07.0.112	FIF112	Finnic	Finnish	Saloinen	64.6551	24.4710	Saloinen	Saloinen	SALOINEN	64.5833	24.5000	http://www.geonames.org/637936/saloinen.html
07.0.113	FIF113	Finnic	Finnish	Vihanti	64.4861	24.9918	Vihanti	Vihanti	VIHANTI	64.4167	25.0833	http://www.geonames.org/631758/vihanti.html
07.0.114	FIF114	Finnic	Finnish	Liminka	64.8083	25.4167	Liminka	Liminka	LIMINKA	64.7500	25.4167	http://www.geonames.org/647930/liminka.html
07.0.115	FIF115	Finnic	Finnish	Rantsila	64.5000	25.6500	Rantsila	Rantsila	RANTSILA	64.4167	25.6667	http://www.geonames.org/639895/rantsila.html
07.0.116	FIF116	Finnic	Finnish	Muhos	64.8075	25.9943	Muhos	Muhos	MUHOS	64.8333	26.0000	http://www.geonames.org/645765/muhos.html
07.0.117	FIF117	Finnic	Finnish	Piippola	64.1775	25.9659	Piippola	Piippola	PIIPPOLA	64.1667	26.0000	http://www.geonames.org/641612/piippola.html
07.0.118	FIF118	Finnic	Finnish	Puolanka	64.8681	27.6708	Puolanka	Puolanka	PUOLANKA	64.8333	27.7500	http://www.geonames.org/640658/puolanka.html
07.0.119	FIF119	Finnic	Finnish	Sotkamo	64.1307	28.3905	Sotkamo	Sotkamo	SOTKAMO	64.0833	28.4167	http://www.geonames.org/638553/rytilahti.html
07.0.120	FIF120	Finnic	Finnish	Kuhmo	64.1287	29.5203	Kuhmo	Kuhmo	KUHMO	64.2500	29.6667	http://www.geonames.org/650705/kuhmo.html
07.0.121	FIF121	Finnic	Finnish	Lappajärvi	63.2167	23.6333	Lappajärvi	Lappajärvi	LAPPAJAERVI	63.1667	23.5833	http://www.geonames.org/652670/kirkonkylae.html
07.0.122	FIF122	Finnic	Finnish	Kaustinen	63.5481	23.6965	Kaustinen	Kaustinen	KAUSTINEN	63.5833	23.7500	http://www.geonames.org/642213/penttilae.html
07.0.123	FIF123	Finnic	Finnish	Perho	63.2151	24.4158	Perho	Perho	PERHO	63.2500	24.2500	http://www.geonames.org/642139/perho.html
07.0.124	FIF124	Finnic	Finnish	Toholampi	63.7750	24.2500	Toholampi	Toholampi	TOHOLAMPI	63.7500	24.3333	http://www.geonames.org/634324/toholampi.html
07.0.125	FIF125	Finnic	Finnish	Viitasaari	63.0734	25.8597	Viitasaari	Viitasaari	VIITASAARI	63.1667	25.7500	http://www.geonames.org/631560/viitasaari.html
07.0.126	FIF126	Finnic	Finnish	Pyhäjärvi	63.6812	25.9815	Pyhäjärvi Ol.	Pyhäjärvi_Ol.	PYHAEJAERVI	63.6667	25.8333	http://www.geonames.org/640441/pyhaejaervi.html
07.0.127	FIF127	Finnic	Finnish	Kiuruvesi	63.6538	26.6211	Kiuruvesi	Kiuruvesi	KIURUVESI	63.6667	26.5833	http://www.geonames.org/652559/kiuruvesi.html
07.0.128	FIF128	Finnic	Finnish	Pielavesi	63.2333	26.7583	Pielavesi	Pielavesi	PIELAVESI	63.2500	26.5833	http://www.geonames.org/641861/pielavesi.html
07.0.129	FIF129	Finnic	Finnish	Iisalmi	63.5578	27.1917	Iisalmi	Iisalmi	IISALMI	63.5833	27.1667	http://www.geonames.org/656820/iisalmi.html
07.0.130	FIF130	Finnic	Finnish	Maaninka	63.1551	27.2994	Maaninka	Maaninka	MAANINKA	63.1667	27.1667	http://www.geonames.org/647202/maaninka.html
07.0.131	FIF131	Finnic	Finnish	Sonkajärvi	63.6716	27.5221	Sonkajärvi	Sonkajärvi	SONKAJAERVI	63.7500	27.6667	http://www.geonames.org/636301/sonkajaervi.html
07.0.132	FIF132	Finnic	Finnish	Kaavi	62.9750	28.4833	Kaavi	Kaavi	KAAVI	63.0000	28.5833	http://www.geonames.org/655069/kaavi.html
07.0.133	FIF133	Finnic	Finnish	Nurmes	63.5450	29.1333	Nurmes	Nurmes	NURMES	63.5833	29.1667	http://www.geonames.org/644187/nurmes.html
07.0.134	FIF134	Finnic	Finnish	Juuka	63.2433	29.2546	Juuka	Juuka	JUUKA	63.2500	29.2500	http://www.geonames.org/655312/juuka.html
07.0.135	FIF135	Finnic	Finnish	Pielisjärvi	63.3105	30.0321	Pielisjärvi	Pielisjärvi	PIELISJAERVI	63.3333	30.1667	http://www.geonames.org/641857/pielisjaervi.html
07.0.136	FIF136	Finnic	Finnish	Teuva	62.4795	21.7391	Teuva	Teuva	TEUVA	62.5000	21.8333	http://www.geonames.org/634561/teuva.html
07.0.137	FIF137	Finnic	Finnish	Laihia	62.9761	22.0115	Laihia	Laihia	LAIHIA	62.9167	22.0000	http://www.geonames.org/649348/laihia.html
07.0.138	FIF138	Finnic	Finnish	Kauhajoki	62.4236	22.1759	Kauhajoki	Kauhajoki	KAUHAJOKI	62.3333	22.3333	http://www.geonames.org/653627/kauhajoki.html
07.0.139	FIF139	Finnic	Finnish	Ilmajoki	62.7333	22.5833	Ilmajoki	Ilmajoki	ILMAJOKI	62.7500	22.3333	http://www.geonames.org/656739/ilmajoki.html
07.0.140	FIF140	Finnic	Finnish	Karvia	62.1333	22.5583	Karvia	Karvia	KARVIA	62.1667	22.6667	http://www.geonames.org/653813/karvia.html
07.0.141	FIF141	Finnic	Finnish	Jalasjärvi	62.4917	22.7667	Jalasjärvi	Jalasjärvi	JALASJAERVI	62.4167	22.8333	http://www.geonames.org/656117/jalasjaervi.html
07.0.142	FIF142	Finnic	Finnish	Lapua	62.9689	23.0071	Lapua	Lapua	LAPUA	63.0000	23.0833	http://www.geonames.org/648855/lapua.html
07.0.143	FIF143	Finnic	Finnish	Alavus	62.5917	23.6167	Alavus	Alavus	ALAVUS	62.5000	23.5000	http://www.geonames.org/661352/alavus.html
07.0.144	FIF144	Finnic	Finnish	Virrat	62.2409	23.7702	Virrat	Virrat	VIRRAT	62.2500	23.6667	http://www.geonames.org/631376/virrat.html
07.0.145	FIF145	Finnic	Finnish	Ruovesi	61.9833	24.0667	Ruovesi	Ruovesi	RUOVESI	62.0000	24.0000	http://www.geonames.org/638691/ruovesi.html
07.0.146	FIF146	Finnic	Finnish	Ähtäri	62.5502	24.0694	Ähtäri	Ähtäri	AEHTAERI	62.5833	24.2500	http://www.geonames.org/661896/aehtaeri.html
07.0.147	FIF147	Finnic	Finnish	Keuruu	62.2560	24.7079	Keuruu	Keuruu	KEURUU	62.2500	24.6667	http://www.geonames.org/652977/keuruu.html
07.0.148	FIF148	Finnic	Finnish	Karstula	62.8778	24.8009	Karstula	Karstula	KARSTULA	62.9167	24.7500	http://www.geonames.org/653852/karstula.html
07.0.149	FIF149	Finnic	Finnish	Saarijärvi	62.7067	25.2554	Saarijärvi	Saarijärvi	SAARIJAERVI	62.5833	25.2500	http://www.geonames.org/638321/saarijaervi.html
07.0.150	FIF150	Finnic	Finnish	Jyväskylä	62.2447	25.7472	Jyväskylä	Jyväskylä	JYVAESKYLAE	62.2500	25.5833	http://www.geonames.org/655194/jyvaeskylae.html
07.0.151	FIF151	Finnic	Finnish	Laukaa	62.4123	25.9496	Laukaa	Laukaa	LAUKAA	62.3333	26.0000	http://www.geonames.org/648738/laukaa.html
07.0.152	FIF152	Finnic	Finnish	Hankasalmi	62.3833	26.4333	Hankasalmi	Hankasalmi	HANKASALMI	62.3333	26.5000	http://www.geonames.org/659024/hankasalmi.html
07.0.153	FIF153	Finnic	Finnish	Rautalampi	62.6243	26.8277	Rautalampi	Rautalampi	RAUTALAMPI	62.6667	26.6667	http://www.geonames.org/639709/rautalampi.html
07.0.154	FIF154	Finnic	Finnish	Karttula	62.8967	26.9667	Karttula	Karttula	KARTTULA	62.8333	27.1667	http://www.geonames.org/653841/karttula.html
07.0.155	FIF155	Finnic	Finnish	Suonenjoki	62.6261	27.1221	Suonenjoki	Suonenjoki	SUONENJOKI	62.5000	27.2500	http://www.geonames.org/635692/suonenjoki.html
07.0.156	FIF156	Finnic	Finnish	Kuopio	62.8925	27.6783	Kuopio	Kuopio	KUOPIO	62.8333	27.7500	http://www.geonames.org/650224/kuopio.html
07.0.157	FIF157	Finnic	Finnish	Joroinen	62.1789	27.8299	Joroinen	Joroinen	JOROINEN	62.1667	27.8333	http://www.geonames.org/655626/joroinen.html
07.0.158	FIF158	Finnic	Finnish	Rantasalmi	62.0667	28.3000	Rantasalmi	Rantasalmi	RANTASALMI	62.0000	28.3333	http://www.geonames.org/639906/rantasalmi.html
07.0.159	FIF159	Finnic	Finnish	Heinävesi	62.4228	28.6318	Heinävesi	Heinävesi	HEINAEVESI	62.7500	28.6667	http://www.geonames.org/652046/koivumaeki.html
07.0.160	FIF160	Finnic	Finnish	Enonkoski	62.0893	28.9161	Enonkoski	Enonkoski	ENONKOSKI	62.0833	29.0000	http://www.geonames.org/660235/enonkoski.html
07.0.161	FIF161	Finnic	Finnish	Polvijärvi	62.8550	29.3667	Polvijärvi	Polvijärvi	POLVIJAERVI	62.9167	29.3333	http://www.geonames.org/641055/polvijaervi.html
07.0.162	FIF162	Finnic	Finnish	Liperi	62.5291	29.3854	Liperi	Liperi	LIPERI	62.5000	29.4167	http://www.geonames.org/632240/vaskola.html
07.0.163	FIF163	Finnic	Finnish	Kontiolahti	62.7643	29.8474	Kontiolahti	Kontiolahti	KONTIOLAHTI	62.7500	29.8333	http://www.geonames.org/651659/kontiolahti.html
07.0.164	FIF164	Finnic	Finnish	Kitee	62.0984	30.1380	Kitee	Kitee	KITEE	62.0833	30.0833	http://www.geonames.org/652615/kitee.html
07.0.165	FIF165	Finnic	Finnish	Eno	62.7988	30.1551	Eno	Eno	ENO	62.8333	30.3333	http://www.geonames.org/660242/eno.html
07.0.166	FIF166	Finnic	Finnish	Ilomantsi	62.6679	30.9395	Ilomantsi	Ilomantsi	ILOMANTSI	62.8333	31.0000	http://www.geonames.org/656709/ilomantsi.html
07.0.167	FIF167	Finnic	Finnish	Merikarvia	61.8583	21.5004	Merikarvia	Merikarvia	MERIKARVIA	61.8333	21.5833	http://www.geonames.org/646192/merikarvia.html
07.0.168	FIF168	Finnic	Finnish	Pori	61.4852	21.7974	Pori	Pori	PORI	61.5000	21.7500	http://www.geonames.org/7647303/aittaluoto.html
07.0.169	FIF169	Finnic	Finnish	Eurajoki	61.2024	21.7340	Eurajoki	Eurajoki	EURAJOKI	61.2500	21.7500	http://www.geonames.org/660073/eurajoki.html
07.0.170	FIF170	Finnic	Finnish	Pomarkku	61.6935	22.0085	Pomarkku	Pomarkku	POMARKKU	61.6667	22.0000	http://www.geonames.org/641044/pomarkku.html
07.0.172	FIF172	Finnic	Finnish	Hinnerjoki	60.9962	21.9919	Hinnerjoki	Hinnerjoki	HINNERJOKI	61.0000	22.0000	http://www.geonames.org/657820/hinnerjoki.html
07.0.173	FIF173	Finnic	Finnish	Kokemäki	61.2583	22.3539	Kokemäki	Kokemäki	KOKEMAEKI	61.2500	22.2500	http://www.geonames.org/651980/kokemaeki.html
07.0.174	FIF174	Finnic	Finnish	Kankaanpää	61.8000	22.4000	Kankaanpää	Kankaanpää	KANKAANPAEAE	61.8333	22.4167	http://www.geonames.org/654363/kankaanpaeae.html
07.0.175	FIF175	Finnic	Finnish	Lavia	61.5966	22.5857	Lavia	Lavia	LAVIA	61.5833	22.4167	http://www.geonames.org/648613/lavia.html
07.0.177	FIF177	Finnic	Finnish	Mouhijärvi	61.5134	23.0087	Mouhijärvi	Mouhijärvi	MOUHIJAERVI	61.5000	22.8333	http://www.geonames.org/645800/mouhijaervi.html
07.0.178	FIF178	Finnic	Finnish	Tyrvää	61.3536	22.9412	Tyrvää	Tyrvää	TYRVAEAE	61.2500	23.0000	http://www.geonames.org/633537/tyrvaeae.html
07.0.179	FIF179	Finnic	Finnish	Ikaalinen	61.7710	23.0587	Ikaalinen	Ikaalinen	IKAALINEN	61.9167	23.0833	http://www.geonames.org/656789/ikaalinen.html
07.0.180	FIF180	Finnic	Finnish	Urjala	61.0803	23.5486	Urjala	Urjala	URJALA	61.0833	23.5000	http://www.geonames.org/648733/laukeela.html
07.0.181	FIF181	Finnic	Finnish	Lempäälä	61.3141	23.7524	Lempäälä	Lempäälä	LEMPAEAELAE	61.4167	23.7500	http://www.geonames.org/648366/lempaeaelae.html
07.0.182	FIF182	Finnic	Finnish	Teisko	61.6735	23.8479	Teisko	Teisko	TEISKO	61.7500	23.9167	http://www.geonames.org/634760/teisko.html
07.0.183	FIF183	Finnic	Finnish	Kangasala	61.4637	24.0718	Kangasala	Kangasala	KANGASALA	61.5000	24.1667	http://www.geonames.org/654440/kangasala.html
07.0.184	FIF184	Finnic	Finnish	Sääksmäki	61.2005	24.0711	Sääksmäki	Sääksmäki	SAEAEKSMAEKI	61.1667	24.0833	http://www.geonames.org/638495/saeaeksmaeki.html
07.0.185	FIF185	Finnic	Finnish	Luopioinen	61.3649	24.6566	Luopioinen	Luopioinen	LUOPIOINEN	61.3333	24.6667	http://www.geonames.org/647383/luopioinen.html
07.0.186	FIF186	Finnic	Finnish	Längelmäki	61.7284	24.8003	Längelmäki	Längelmäki	LAENGELMAEKI	61.7500	24.7500	http://www.geonames.org/649031/laenkipohja.html
07.0.187	FIF187	Finnic	Finnish	Lammi	61.0775	25.0110	Lammi	Lammi	LAMMI	61.0833	25.0000	http://www.geonames.org/649223/lammi.html
07.0.188	FIF188	Finnic	Finnish	Padasjoki	61.3509	25.2781	Padasjoki	Padasjoki	PADASJOKI	61.4167	25.3333	http://www.geonames.org/643260/padasjoki.html
07.0.189	FIF189	Finnic	Finnish	Asikkala	61.1721	25.5471	Asikkala	Asikkala	ASIKKALA	61.2500	25.8333	http://www.geonames.org/633099/vaeaeksy.html
07.0.190	FIF190	Finnic	Finnish	Sysmä	61.5000	25.6833	Sysmä	Sysmä	SYSMAE	61.5000	25.7500	http://www.geonames.org/635336/sysmae.html
07.0.191	FIF191	Finnic	Finnish	Joutsa	61.7429	26.1137	Joutsa	Joutsa	JOUTSA	61.7500	26.2500	http://www.geonames.org/655581/joutsa.html
07.0.192	FIF192	Finnic	Finnish	Mäntyharju	61.4176	26.8805	Mäntyharju	Mäntyharju	MAENTYHARJU	61.3333	26.7500	http://www.geonames.org/646699/maentyharju.html
07.0.193	FIF193	Finnic	Finnish	Valkeala	60.9389	26.7972	Valkeala	Valkeala	VALKEALA	61.0833	27.0000	http://www.geonames.org/632669/valkeala.html
07.0.194	FIF194	Finnic	Finnish	Mikkeli	61.6833	27.2667	Mikkeli	Mikkeli	MIKKELI	61.7500	27.2500	http://www.geonames.org/646005/mikkeli.html
07.0.195	FIF195	Finnic	Finnish	Ristiina	61.5065	27.2578	Ristiina	Ristiina	RISTIINA	61.5000	27.4167	http://www.geonames.org/639248/ristiina.html
07.0.196	FIF196	Finnic	Finnish	Lemi	61.0617	27.8050	Lemi	Lemi	LEMI	61.0833	27.9167	http://www.geonames.org/648387/lemi.html
07.0.197	FIF197	Finnic	Finnish	Puumala	61.5239	28.1778	Puumala	Puumala	PUUMALA	61.5000	28.1667	http://www.geonames.org/638590/puumala.html
07.0.198	FIF198	Finnic	Finnish	Ruokolahti	61.2863	28.8275	Ruokolahti	Ruokolahti	RUOKOLAHTI	61.3333	28.7500	http://www.geonames.org/638803/ruokolahti.html
07.0.199	FIF199	Finnic	Finnish	Sääminki	61.8667	28.8333	Sääminki	Sääminki	SAEAEMINKI	61.6667	28.9167	http://www.geonames.org/638490/saeaeminki.html
07.0.200	FIF200	Finnic	Finnish	Parikkala	61.5500	29.5000	Parikkala	Parikkala	PARIKKALA	61.5833	29.3333	http://www.geonames.org/642666/parikkala.html
07.0.201	FIF201	Finnic	Finnish	Kalanti	60.8193	21.5600	Kalanti	Kalanti	KALANTI	60.8333	21.5833	http://www.geonames.org/654827/kalanti.html
07.0.202	FIF202	Finnic	Finnish	Kustavi	60.5467	21.3583	Kustavi	Kustavi	KUSTAVI	60.5000	21.4167	http://www.geonames.org/649998/kustavi.html
07.0.204	FIF204	Finnic	Finnish	Rymättylä	60.3735	21.9470	Rymättylä	Rymättylä	RYMAETTYLAE	60.4167	21.9167	http://www.geonames.org/638582/rymaettylae.html
07.0.205	FIF205	Finnic	Finnish	Mynämäki	60.6833	21.9833	Mynämäki	Mynämäki	MYNAEMAEKI	60.6667	21.9167	http://www.geonames.org/645243/mynaemaeki.html
07.0.207	FIF207	Finnic	Finnish	Yläne	60.8792	22.4111	Yläne	Yläne	YLAENE	60.8333	22.3333	http://www.geonames.org/630998/ylaene.html
07.0.209	FIF209	Finnic	Finnish	Lieto	60.5033	22.4593	Lieto	Lieto	LIETO	60.5000	22.4167	http://www.geonames.org/854900/karvala.html
07.0.212	FIF212	Finnic	Finnish	Loimaa	60.8500	23.0583	Loimaa	Loimaa	LOIMAA	60.9167	23.0833	http://www.geonames.org/647731/loimaa.html
07.0.213	FIF213	Finnic	Finnish	Pertteli	60.4504	23.2411	Pertteli	Pertteli	PERTTELI	60.5000	23.3333	http://www.geonames.org/642093/pertteli.html
07.0.214	FIF214	Finnic	Finnish	Somero	60.6285	23.5145	Somero	Somero	SOMERO	60.7500	23.2500	http://www.geonames.org/655812/joensuu.html
07.0.215	FIF215	Finnic	Finnish	Karjalohja	60.2402	23.7177	Karjalohja	Karjalohja	KARJALOHJA	60.2500	23.7500	http://www.geonames.org/654012/karjalohja.html
07.0.216	FIF216	Finnic	Finnish	Tammela	60.8097	23.7665	Tammela	Tammela	TAMMELA	60.7500	23.8333	http://www.geonames.org/634992/tammela.html
07.0.217	FIF217	Finnic	Finnish	Nummi	60.3920	23.8860	Nummi	Nummi	NUMMI	60.5000	23.8333	http://www.geonames.org/644289/nummi.html
07.0.218	FIF218	Finnic	Finnish	Loppi	60.7178	24.4417	Loppi	Loppi	LOPPI	60.6667	24.3333	http://www.geonames.org/647660/loppi.html
07.0.219	FIF219	Finnic	Finnish	Nurmijärvi	60.4638	24.8076	Nurmijärvi	Nurmijärvi	NURMIJAERVI	60.4167	24.7500	http://www.geonames.org/644171/nurmijaervi.html
07.0.220	FIF220	Finnic	Finnish	Hausjärvi	60.7822	24.9933	Hausjärvi	Hausjärvi	HAUSJAERVI	60.7500	24.9167	http://www.geonames.org/644002/oitti.html
07.0.221	FIF221	Finnic	Finnish	Pornainen	60.4758	25.3750	Pornainen	Pornainen	PORNAINEN	60.5000	25.3333	http://www.geonames.org/640973/pornainen.html
07.0.222	FIF222	Finnic	Finnish	Orimattila	60.8017	25.7288	Orimattila	Orimattila	ORIMATTILA	60.8333	25.8333	http://www.geonames.org/643645/orimattila.html
07.0.223	FIF223	Finnic	Finnish	Myrskylä	60.6697	25.8537	Myrskylä	Myrskylä	MYRSKYLAE	60.6667	25.6667	http://www.geonames.org/645233/myrskylae.html
07.0.224	FIF224	Finnic	Finnish	Sippola	60.7392	27.0007	Sippola	Sippola	SIPPOLA	60.8333	27.0833	http://www.geonames.org/636706/sippola.html
07.0.225	FIF225	Finnic	Finnish	Luumäki	60.9225	27.5693	Luumäki	Luumäki	LUUMAEKI	60.8333	27.6667	http://www.geonames.org/635243/taavetti.html
07.0.226	FIF226	Finnic	Finnish	Virolahti	60.5829	27.7069	Virolahti	Virolahti	VIROLAHTI	60.5833	27.5833	http://www.geonames.org/631393/virojoki.html
07.0.227	FIF227	Finnic	Finnish	Salla	66.8331	28.6673	Salla	Salla	SALLA	66.8333	28.6667	http://www.geonames.org/638074/salla.html
07.0.228	FIF228	Finnic	Finnish	Sodankylä	67.4160	26.5890	Sodankylä	Sodankylä	SODANKYLAE	67.5833	26.6667	http://www.geonames.org/636464/sodankylae.html
07.0.229	FIF229	Finnic	Finnish	Kolari	67.3319	23.7893	Kolari	Kolari	KOLARI	67.1667	24.5000	http://www.geonames.org/655740/jokijalka.html
07.0.230	FIF230	Finnic	Finnish	Paltamo	64.4083	27.8417	Paltamo	Paltamo	PALTAMO	64.4167	27.3333	http://www.geonames.org/655684/jokiranta.html
07.0.231	FIF231	Finnic	Finnish	Pihtipudas	63.3706	25.5755	Pihtipudas	Pihtipudas	PIHTIPUDAS	63.5000	25.2500	http://www.geonames.org/638623/ruukki.html
07.0.232	FIF232	Finnic	Finnish	Korpilahti	62.0164	25.5614	Korpilahti	Korpilahti	KORPILAHTI	62.0000	25.8333	http://www.geonames.org/651350/korpilahti.html
07.0.233	FIF233	Finnic	Finnish	Leppävirta	62.5000	27.7833	Leppävirta	Leppävirta	LEPPAEVIRTA	62.5000	28.2500	http://www.geonames.org/648227/leppaevirta.html
07.0.234	FIF234	Finnic	Finnish	Elimäki	60.7199	26.4449	Elimäki	Elimäki	ELIMAEKI	60.7500	26.4167	http://www.geonames.org/660294/elimaeki.html
07.5.501	FIG501	Germanic	Swedish	Esse	63.5930	23.0540	Esse	Esse	ESSE	63.5833	23.0000	http://www.geonames.org/660126/esse.html
07.5.502	FIG502	Germanic	Swedish	Närpes	62.4728	21.3372	Närpes	Närpes	NAERPES	62.5333	21.3333	http://www.geonames.org/645081/naerpes.html
07.5.503	FIG503	Germanic	Swedish	Kumlinge	60.2588	20.7780	Kumlinge	Kumlinge	KUMLINGE	60.2500	20.8333	http://www.geonames.org/650395/kumlinge.html
07.5.504	FIG504	Germanic	Swedish	Pargas	60.3011	22.3022	Pargas	Pargas	PARGAS	60.1667	22.7500	http://www.geonames.org/7911309/laensi-turunmaa.html
07.5.505	FIG505	Germanic	Swedish	Tenala	60.0585	23.2982	Tenala	Tenala	TENALA	60.0833	23.4167	http://www.geonames.org/634740/tenala.html
07.5.506	FIG506	Germanic	Swedish	Strömfors	60.5242	26.4731	Strömfors	Strömfors	STROEMFORS	60.5000	26.5000	http://www.geonames.org/638711/ruotsinpyhtaeae.html
07.5.601	FIG601	Germanic	Swedish	Vörå	63.1285	22.2507	Vörå	Vörå	VOERA	63.1333	22.2500	http://www.geonames.org/8128759/voera.html
07.5.602	FIG602	Germanic	Swedish	Malax	62.9332	21.5683	Malax	Malax	MALAX	62.8333	21.5000	http://www.geonames.org/646875/malax.html
07.5.603	FIG603	Germanic	Swedish	Lappfjärd	62.2551	21.5257	Lappfjärd	Lappfjärd	LAPPFJAERD	62.2833	21.6167	http://www.geonames.org/648896/lappfjaerd.html
07.5.604	FIG604	Germanic	Swedish	Finström	60.2310	19.9880	Finström	Finström	FINSTROEM	60.1667	19.9167	http://www.geonames.org/659823/godby.html
07.5.605	FIG605	Germanic	Swedish	Houtskär	60.2229	21.3723	Houtskär	Houtskär	HOUTSKAER	60.3333	21.5000	http://www.geonames.org/657305/houtskaer.html
07.5.606	FIG606	Germanic	Swedish	Kirkkonummi	60.1238	24.4415	Kyrkslätt	Kyrkslätt	KYRKSLAETT	60.1167	24.3333	http://www.geonames.org/649630/kirkkonummi.html
07.5.607	FIG607	Germanic	Swedish	Sibbo	60.3750	25.2667	Sibbo	Sibbo	SIBBO	60.3000	25.3333	http://www.geonames.org/637067/sibbo.html
07.9.901	FIL901	Lapp	Saami	Utsjoki	69.9090	27.0285	Utsjoki	Utsjoki	UTSJOKI	69.8833	27.0000	http://www.geonames.org/633268/utsjoki.html
07.9.902	FIL902	Lapp	Saami	Sevettijärvi	69.5055	28.5916	Sevettijärvi	Sevettijärvi	SEVETTIJAERVI	69.5333	28.5833	http://www.geonames.org/637078/sevettijaervi.html
07.9.903	FIL903	Lapp	Saami	Enontekiö	68.3847	23.6389	Enontekiö	Enontekiö	ENONTEKIOE	68.3833	24.7500	http://www.geonames.org/658108/hetta.html
07.9.904	FIL904	Lapp	Saami	Inari	68.9050	27.0304	Inari	Inari	INARI	68.9000	27.0167	http://www.geonames.org/656657/inari.html
07.9.905	FIL905	Lapp	Saami	Nellim	68.8455	28.3150	Nellim	Nellim	NELLIM	68.8333	28.3167	http://www.geonames.org/644976/nellim.html
07.9.923	NOL923	Lapp	Saami	Polmak	70.0697	28.0111	Polmak	Polmak	POLMAK	70.0000	28.0167	http://www.geonames.org/778261/buolbmat.html
07.9.924	NOL924	Lapp	Saami	Tana	70.2033	28.1770	Tana	Tana	TANA (L)	70.1667	28.2000	http://www.geonames.org/777197/tana.html
07.9.925	NOL925	Lapp	Saami	Nesseby	70.1520	28.8647	Nesseby	Nesseby	NESSEBY	70.0500	28.5833	http://www.geonames.org/778560/unjarga.html
07.9.926	NOL926	Lapp	Saami	Manndalen	69.5232	20.5388	Manndalen i Lyngen	Manndalen_i_Lyngen	MANNDALEN I LYNGEN L	69.5000	20.5000	http://www.geonames.org/778776/manndalen.html
07.9.927	NOL927	Lapp	Saami	Kvænangen	69.9371	22.0499	Kvænangen	Kvænangen	KVAENANGEN	69.8667	22.0000	http://www.geonames.org/779159/kvaenangen.html
07.9.928	NOL928	Lapp	Saami	Kautokeino	69.0125	23.0412	Kautokeino	Kautokeino	KAUTOKEINO	69.0000	23.0000	http://www.geonames.org/779330/kautokeino.html
07.9.929	NOL929	Lapp	Saami	Karasjok	69.4719	25.5112	Karasjok	Karasjok	KARASJOK	69.4667	25.5000	http://www.geonames.org/779350/karasjohka.html
07.9.930	NOL930	Lapp	Saami	Skånland	68.5855	16.5798	Skånland	Skånland	SKALAND	68.5667	16.6667	http://www.geonames.org/3139372/skanland.html
07.9.932	NOL932	Lapp	Saami	Tysfjord	68.0963	16.3679	Tysfjord	Tysfjord	TYSFKORD	67.9000	16.2167	http://www.geonames.org/3133482/tysfjord.html
07.9.933	NOL933	Lapp	Saami	Grane	65.4006	13.5106	Grane	Grane	GRANE	65.1667	13.3333	http://www.geonames.org/3155295/grane.html
07.9.934	NOL934	Lapp	Saami	Røyrvik	64.8873	13.5622	Røyrvik	Røyrvik	ROYRVIK	64.8000	13.6667	http://www.geonames.org/3141061/royrvik.html
07.9.935	NOL935	Lapp	Saami	Riasten	62.8452	11.7657	Riasten i Brekken	Riasten_i_Brekken	RIASTEN I BREKKEN	62.8167	11.8333	http://www.geonames.org/3141886/riasten.html
07.9.941	SEL941	Lapp	Saami	Jukkasjärvi	67.8518	20.6032	Jukkasjärvi	Jukkasjärvi	JUKKASJAERVI (L)	68.1000	19.9000	http://www.geonames.org/8126345/jukkasjaervi-socken.html
07.9.942	SEL942	Lapp	Saami	Karesuando	68.4426	22.4501	Karesuando	Karesuando	KARESUANDO (L)	68.1167	22.1833	http://www.geonames.org/8132807/karesuando.html
07.9.943	SEL943	Lapp	Saami	Gällivare	67.1553	20.6507	Gällivare	Gällivare	GAELLIVARE (L)	67.4333	20.8500	http://www.geonames.org/606086/gaellivare.html
07.9.944	SEL944	Lapp	Saami	Norra Tärna	65.7128	15.2817	Norra Tärna	Norra_Tärna	NORRA TAERNA (L)	66.0500	14.7833	http://www.geonames.org/8132994/taerna.html
07.9.945	SEL945	Lapp	Saami	Arjeplog	66.0537	17.9027	Arjeplog	Arjeplog	ARJEPLOG (L)	66.0333	18.7167	http://www.geonames.org/2725372/arjeplog.html
07.9.946	SEL946	Lapp	Saami	Jokkmokk	66.6000	19.8333	Jokkmokk	Jokkmokk	JOKKMOKK (L)	66.6000	19.8333	http://www.geonames.org/2702997/jokkmokk.html
07.9.947	SEL947	Lapp	Saami	Tärna, Stensele	65.5500	15.9667	Tärna Stensele	Tärna_Stensele	TAERNE STENSELE (L)	65.5500	15.9667	http://www.geonames.org/2671529/storumans-kommun.html
07.9.948	SEL948	Lapp	Saami	Sorsele	65.5349	17.5422	Sorsele	Sorsele	SORSELE (L)	65.7167	18.2833	http://www.geonames.org/2675079/sorsele.html
07.9.949	SEL949	Lapp	Saami	Arvidsjaur	65.5862	19.2019	Arvidsjaur	Arvidsjaur	ARVIDSJAUR (L)	65.7500	19.9167	http://www.geonames.org/2725136/arvidsjaur.html
07.9.951	SEL951	Lapp	Saami	Vilhelmina Risbäck	64.7040	15.5388	Vilhelmina Risbäck	Vilhelmina_Risbäck	VILHELMINA RISBAECK L	64.5000	15.4833	http://www.geonames.org/2682421/risbaeck.html
07.9.952	SEL952	Lapp	Saami	Offerdal	63.4661	14.0094	Offerdal	Offerdal	OFFERDAL (L)	63.7500	13.3667	http://www.geonames.org/8132587/offerdal.html
07.9.954	SEL954	Lapp	Saami	Tännäs Idre	61.8579	12.7269	Tännäs Idre	Tännäs_Idre	TAENNAES IDRE (L)	62.1333	12.5500	http://www.geonames.org/2703880/idre.html
07.9.981	RUL981	Lapp	Saami	Tuloma	68.8192	32.6903	Tuloma	Tuloma	TULOMA	68.8333	32.6667	http://www.geonames.org/480524/tuloma.html
07.9.982	RUL982	Lapp	Saami	Lovozero	68.0064	35.0260	Lovozero	Lovozero	LOVOZERO	68.0833	35.0000	http://www.geonames.org/533933/lovozero.html
07.9.983	RUL983	Lapp	Saami	Varzino	68.3572	38.3738	Varzino	Varzino	VARZINO	68.2500	38.5000	http://www.geonames.org/476874/varzino.html
07.9.984	RUL984	Lapp	Saami	Iokan'ga	68.0540	39.5107	Iokan'ga	Iokan'ga	IOKAN'GA	68.0000	39.6667	http://www.geonames.org/556267/iokanga.html
07.9.985	RUL985	Lapp	Saami	Babino	67.5426	31.8920	Babino	Babino	BABINO	67.5833	30.9167	http://www.geonames.org/579928/babino.html
08.0.002	FRR002	Romance	Gallo-Roman	Nort-Leulinghen	50.8010	2.0924	Nort-Leulinghen	Nort-Leulinghen	NORT-LEULINGHEN	50.8333	2.0000	http://www.geonames.org/2990086/nort-leulinghem.html
08.0.003	FRR003	Romance	Gallo-Roman	Torcy	50.4833	2.0227	Torcy	Torcy	TORCY	50.5000	2.0000	http://www.geonames.org/6439921/torcy.html
08.0.004	FRR004	Romance	Gallo-Roman	Verquineul	50.5019	2.6650	Verquineul	Verquineul	VERQUIGNEUL	50.5000	2.6667	http://www.geonames.org/2969723/verquigneul.html
08.0.005	FRR005	Romance	Gallo-Roman	Templeuve-en-Pévèle	50.5269	3.1798	Templeuve-en-Pévèle	Templeuve-en-Pévèle	TEMPLEUVE-EN-PEVELE	50.5000	3.0000	http://www.geonames.org/2973187/templeuve.html
08.0.006	FRR006	Romance	Gallo-Roman	La Longuiville	50.2927	3.8662	La Longuiville	La_Longuiville	LA LONGUEVILLE	50.3333	3.5000	http://www.geonames.org/6614768/la-longueville.html
08.0.007	FRR007	Romance	Gallo-Roman	Lanchères	50.1572	1.5536	Lanchères	Lanchères	LANCHERES	50.1667	1.6667	http://www.geonames.org/6444557/lancheres.html
08.0.008	FRR008	Romance	Gallo-Roman	Candas	50.1072	2.2582	Candas	Candas	CANDAS	50.1667	2.3333	http://www.geonames.org/3028852/candas.html
08.0.009	FRR009	Romance	Gallo-Roman	Vélu	50.1083	2.9743	Vélu	Vélu	VELU	50.1667	3.0000	http://www.geonames.org/2970168/velu.html
08.0.010	FRR010	Romance	Gallo-Roman	Maurois	50.0725	3.4665	Maurois	Maurois	MAUROIS	50.1667	3.6667	http://www.geonames.org/2995010/maurois.html
08.0.011	FRR011	Romance	Gallo-Roman	Glageon	50.0569	4.0721	Glageon	Glageon	GLAGEON	50.1667	4.0000	http://www.geonames.org/3015870/glageon.html
08.0.012	FRR012	Romance	Gallo-Roman	St. Vaast Dieppedalle	49.7554	0.7221	St. Vaast Dieppedalle	St._Vaast_Dieppedalle	S. VAAST DIEPPEDALLE	49.8333	0.6667	http://www.geonames.org/6443512/saint-vaast-dieppedalle.html
08.0.013	FRR013	Romance	Gallo-Roman	Bellengreville	49.9067	1.2186	Bellengreville	Bellengreville	BELLENGREVILLE	49.8333	1.3333	http://www.geonames.org/3033672/bellengreville.html
08.0.014	FRR014	Romance	Gallo-Roman	Blangy-sous-Poix	49.7665	2.0036	Blangy-sous-Poix	Blangy-sous-Poix	BLANGY-SOUS-POIX	49.8333	2.0000	http://www.geonames.org/6444276/blangy-sous-poix.html
08.0.015	FRR015	Romance	Gallo-Roman	Vrély	49.7991	2.6923	Vrély	Vrély	VRELY	49.8333	2.6667	http://www.geonames.org/6444812/vrely.html
08.0.016	FRR016	Romance	Gallo-Roman	Vermand	49.8781	3.1498	Vermand	Vermand	VERMAND	49.8333	3.3333	http://www.geonames.org/6425300/vermand.html
08.0.017	FRR017	Romance	Gallo-Roman	Dizy-le-Gros	49.6294	4.0222	Dizy-le-Gros	Dizy-le-Gros	DIZY-LE-GROS	49.8333	4.0000	http://www.geonames.org/6424876/dizy-le-gros.html
08.0.018	FRR018	Romance	Gallo-Roman	Sormonne	49.8110	4.5661	Sormonne	Sormonne	SORMONNE	49.8333	4.6667	http://www.geonames.org/2974178/sormonne.html
08.0.019	FRR019	Romance	Gallo-Roman	La Frenaye	49.5224	0.5731	La Frenaye	La_Frenaye	LA FRENAYE	49.5000	0.3333	http://www.geonames.org/6614452/la-frenaye.html
08.0.020	FRR020	Romance	Gallo-Roman	Bertrimont	49.6680	0.9999	Bertrimont	Bertrimont	BERTRIMONT	49.5000	1.0000	http://www.geonames.org/3033153/bertrimont.html
08.0.021	FRR021	Romance	Gallo-Roman	Beaubec-la-Rosière	49.6454	1.5314	Beauté-la-Rosière	Beauté-la-Rosière	BEAUTEE-LA-ROSIERE	49.5000	1.6667	http://www.geonames.org/6451103/beaubec-la-rosiere.html
08.0.022	FRR022	Romance	Gallo-Roman	Plainval	49.5288	2.4414	Plainval	Plainval	PLAINVAL	49.5000	2.3333	http://www.geonames.org/2986943/plainval.html
08.0.023	FRR023	Romance	Gallo-Roman	Jaulzy	49.3950	3.0662	Jaulzy	Jaulzy	JAULZY	49.5000	3.0000	http://www.geonames.org/3012423/jaulzy.html
08.0.024	FRR024	Romance	Gallo-Roman	Suzy	49.5506	3.4672	Suzy	Suzy	SUZY	49.5000	3.6667	http://www.geonames.org/2973606/suzy.html
08.0.025	FRR025	Romance	Gallo-Roman	Le Châtelet	49.4167	4.2775	Le Châtelet	La_Châtelet	LE CHATELET	49.5000	4.3333	http://www.geonames.org/6455483/le-chatelet-sur-retourne.html
08.0.026	FRR026	Romance	Gallo-Roman	Haraucourt	49.6215	4.9607	Haraucourt	Haraucourt	HARAUCOURT	49.5000	5.0000	http://www.geonames.org/6425967/haraucourt.html
08.0.027	FRR027	Romance	Gallo-Roman	Thil	49.4729	5.9083	Thil	Thil	THIL	49.5000	5.6667	http://www.geonames.org/6454313/thil.html
08.0.028	FRR028	Romance	Gallo-Roman	Fresville	49.4396	-1.3562	Fresville	Fresville	FRESVILLE	49.5000	-1.3333	http://www.geonames.org/6435411/fresville.html
08.0.029	FRR029	Romance	Gallo-Roman	Créances	49.2010	-1.5666	Créances	Créances	CREANCES	49.1667	-1.0000	http://www.geonames.org/6435386/creances.html
08.0.030	FRR030	Romance	Gallo-Roman	Feuguerolles-sur-Orne	49.1166	-0.4048	Feuguerolles-sur-Orne	Feuguerolles-sur-Orne	FEUGUEROLLES-SUR-ORNE	49.1667	-0.3333	http://www.geonames.org/3018580/feuguerolles-bully.html
08.0.031	FRR031	Romance	Gallo-Roman	St. Christophe-sur-Condé	49.2871	0.5985	St. Christophe-sur-Condé	St._Christophe-sur-Condé	ST CHRISTOPHE-SUR-CONDE	49.1667	0.3333	http://www.geonames.org/6430568/saint-christophe-sur-conde.html
08.0.032	FRR032	Romance	Gallo-Roman	Barc	49.0703	0.8176	Barc	Barc	BARC	49.1667	1.0000	http://www.geonames.org/6447943/barc.html
08.0.033	FRR033	Romance	Gallo-Roman	Liancourt St. Pierre	49.2349	1.9086	Liancourt St. Pierre	Liancourt_St._Pierre	LIANCOURT S. PIERRE	49.1667	1.6667	http://www.geonames.org/6438793/liancourt-saint-pierre.html
08.0.034	FRR034	Romance	Gallo-Roman	St. Martin-Longeau	49.3424	2.6047	St. Martin-Longeau	St._Martin-Longeau	S. MARTIN-LONGEAU	49.1667	2.3333	http://www.geonames.org/6438960/saint-martin-longueau.html
08.0.035	FRR035	Romance	Gallo-Roman	Marolles	49.1703	3.1045	Marolles	Marsolles	MAROLLES	49.1667	3.0000	http://www.geonames.org/2995576/marolles.html
08.0.036	FRR036	Romance	Gallo-Roman	Chartèves	49.0750	3.5060	Chartèves	Chartèves	CHARTEVES	49.1667	3.6667	http://www.geonames.org/3026470/charteves.html
08.0.037	FRR037	Romance	Gallo-Roman	Verzenay	49.1598	4.1461	Verzenay	Verzenay	VERZENAY	49.1667	4.3333	http://www.geonames.org/2969590/verzenay.html
08.0.038	FRR038	Romance	Gallo-Roman	Aubréville	49.1437	5.0811	Aubréville	Aubréville	AUBREVILLE	49.1667	5.0000	http://www.geonames.org/6449758/aubreville.html
08.0.039	FRR039	Romance	Gallo-Roman	Eix	49.1790	5.4985	Eix	Eix	EIX	49.1667	5.6667	http://www.geonames.org/6436994/eix.html
08.0.040	FRR040	Romance	Gallo-Roman	Quetteville	49.3369	0.3093	Quetteville	Quetteville	QUETTEVILLE	48.8333	-1.0000	http://www.geonames.org/6427393/quetteville.html
08.0.041	FRR041	Romance	Gallo-Roman	Clecy	48.9169	-0.4816	Clecy	Clecy	CLECY	48.8333	-0.3333	http://www.geonames.org/3024695/clecy.html
08.0.042	FRR042	Romance	Gallo-Roman	La Chapelle-Yvon	49.0656	0.3356	La Chapelle-Yvon	La_Chapelle-Yvon	LA CHAPELLE-YVON	48.8333	0.3333	http://www.geonames.org/3010214/la-chapelle-yvon.html
08.0.043	FRR043	Romance	Gallo-Roman	Breux-sur-Avre	48.7730	1.0798	Breux	Breux	BREUX	48.8333	1.0000	http://www.geonames.org/6430288/breux-sur-avre.html
08.0.044	FRR044	Romance	Gallo-Roman	Gommecourt	49.0752	1.5938	Gommecourt	Gommecourt	GOMMECOURT	48.8333	1.6667	http://www.geonames.org/6613733/gommecourt.html
08.0.045	FRR045	Romance	Gallo-Roman	Le Plesis-Robinson	48.7813	2.2619	Le Plesis-Piquet	Le_Plesis-Piquet	LE PLESSIS-PIQUET	48.8333	2.3333	http://www.geonames.org/6457182/le-plessis-robinson.html
08.0.046	FRR046	Romance	Gallo-Roman	Sammeron	48.9474	3.0804	Sammeron	Sammeron	SAMMERON	48.8333	3.0000	http://www.geonames.org/6443849/sammeron.html
08.0.047	FRR047	Romance	Gallo-Roman	Linthes	48.7304	3.8479	Linthes	Linthes	LINTHES	48.8333	3.6667	http://www.geonames.org/2998206/linthes.html
08.0.048	FRR048	Romance	Gallo-Roman	Courtisols	48.9874	4.5155	Courtisols	Courtisols	COURTISOLS ALCB	48.8333	4.3333	http://www.geonames.org/3022882/courtisols.html
08.0.049	FRR049	Romance	Gallo-Roman	Sommelonne	48.6707	5.0369	Sommelonne	Sommelonne	SOMMELONNE	48.8333	5.0000	http://www.geonames.org/6437215/sommelonne.html
08.0.050	FRR050	Romance	Gallo-Roman	Fresnes-au-Mont	48.8962	5.4399	Fresnes-au-Mont	Fresnes-au-Mont	FRESNES-AU-MONT	48.8333	5.6667	http://www.geonames.org/3017176/fresnes-au-mont.html
08.0.051	FRR051	Romance	Gallo-Roman	Moncel-Sur-Seille	48.7654	6.4226	Moncel-Sur-Seille	Moncel-Sur-Seille	MONCEL-SUR-SEILLE	48.8333	6.3333	http://www.geonames.org/6436756/moncel-sur-seille.html
08.0.052	FRR052	Romance	Gallo-Roman	Plouvara	48.5086	-2.9151	Plouvara	Plouvara	PLOUVARA	48.5000	-2.6667	http://www.geonames.org/2986630/plouvara.html
08.0.053	FRR053	Romance	Gallo-Roman	Trévron	48.3908	-2.0651	Trévrou	Trévrou	TREVROU	48.5000	-2.0000	http://www.geonames.org/6429195/trevron.html
08.0.054	FRR054	Romance	Gallo-Roman	Vieux-Viel	48.5110	-1.5445	Vieux-Viel	Vieux-Viel	VIEUX-VIEL	48.5000	-1.3333	http://www.geonames.org/2969174/vieux-viel.html
08.0.055	FRR055	Romance	Gallo-Roman	Dompierre	48.6322	-0.5515	Dompierre	Dompierre	DOMPIERRE	48.5000	-0.6667	http://www.geonames.org/3021145/dompierre.html
08.0.056	FRR056	Romance	Gallo-Roman	Héloup	48.3985	0.0277	Héloup	Héloup	HELOUP	48.5000	0.0000	http://www.geonames.org/3013552/heloup.html
08.0.057	FRR057	Romance	Gallo-Roman	Réveillon	48.4781	0.5597	Réveillon	Réveillon	REVEILLON	48.5000	0.6667	http://www.geonames.org/2983839/reveillon.html
08.0.058	FRR058	Romance	Gallo-Roman	Droue	48.0406	1.0762	Droue	Droue	DROUE	48.5000	1.3333	http://www.geonames.org/6455099/droue.html
08.0.059	FRR059	Romance	Gallo-Roman	Ormoy-la-Rivière	48.4041	2.1492	Ormoy-la-Rivière	Ormoy-la-Rivière	ORMOY-LA-RIVIERE	48.5000	2.0000	http://www.geonames.org/2989260/ormoy-la-riviere.html
08.0.060	FRR060	Romance	Gallo-Roman	Chailly-en-Bière	48.4670	2.6068	Chailly-en-Bière	Chailly-en-Bière	CHAILLY-EN-BIERE	48.5000	2.6667	http://www.geonames.org/6451174/chailly-en-biere.html
08.0.061	FRR061	Romance	Gallo-Roman	Longueville	48.5145	3.2473	Longueville	Longueville	LONGUEVILLE	48.5000	3.3333	http://www.geonames.org/6613861/longueville.html
08.0.062	FRR062	Romance	Gallo-Roman	Saint-Étienne	48.5010	4.1092	St.-Etienne	St.-Etienne	S.-ETIENNE	48.5000	4.0000	http://www.geonames.org/2980216/saint-etienne-sous-barbuise.html
08.0.063	FRR063	Romance	Gallo-Roman	Drosnay	48.5768	4.6164	Rosnay	Rosnay	ROSNAY	48.5000	4.6667	http://www.geonames.org/3020775/drosnay.html
08.0.064	FRR064	Romance	Gallo-Roman	Tréveray	48.6103	5.3972	Tréveray	Tréveray	TREVERAY	48.5000	5.3333	http://www.geonames.org/6437231/treveray.html
08.0.065	FRR065	Romance	Gallo-Roman	Crépey	48.5265	5.9732	Crépey	Crépey	CREPEY	48.5000	6.0000	http://www.geonames.org/6436558/crepey.html
08.0.066	FRR066	Romance	Gallo-Roman	Igney	48.2735	6.3972	Igney	Igney	IGNEY	48.3333	6.8333	http://www.geonames.org/3012894/igney.html
08.0.067	FRR067	Romance	Gallo-Roman	Uzel	48.2804	-2.8410	Uzel	Uzel	UZEL	48.1667	-2.6667	http://www.geonames.org/6453812/uzel.html
08.0.068	FRR068	Romance	Gallo-Roman	l'Hermitage	48.1275	-1.8179	l'Hermitage	l'Hermitage	L'HERMITAGE	48.1667	-2.0000	http://www.geonames.org/6614362/l-hermitage.html
08.0.069	FRR069	Romance	Gallo-Roman	Saint-Melaine-sur-Vilaine	48.1109	-1.3823	St. Melaine-sur-Villaine	St._Melaine-sur-Villaine	S. MELAINE-SUR-VILLAINE	48.1667	-1.3333	http://www.geonames.org/2979188/saint-jean-sur-vilaine.html
08.0.070	FRR070	Romance	Gallo-Roman	Le Genest-Saint-Isle	48.0992	-0.8878	Le Genest	Le_Genest	LE GENEST	48.1667	-0.6667	http://www.geonames.org/6617023/le-genest-saint-isle.html
08.0.071	FRR071	Romance	Gallo-Roman	Domfront-en-Champagne	48.1059	0.0272	Domfront-en-Champagne	Domfront-en-Champagne	DOMFRONT-EN-CHAMPAGNE	48.1667	0.0000	http://www.geonames.org/6442565/domfront-en-champagne.html
08.0.072	FRR072	Romance	Gallo-Roman	Boëssé-le-Sec	48.1346	0.5634	Boëssé-le-Sec	Boëssé-le-Sec	BOESSE-LE-SEC	48.1667	0.6667	http://www.geonames.org/6450920/boesse-le-sec.html
08.0.073	FRR073	Romance	Gallo-Roman	Saint-Christophe	48.1274	1.3660	St. Christophe	St._Christophe	S. CHRISTOPHE	48.1667	1.3333	http://www.geonames.org/2981158/saint-christophe.html
08.0.074	FRR074	Romance	Gallo-Roman	Montigny-La-Brosse	48.1118	2.1107	Montigny-La-Brosse	Montigny-La-Brosse	MONTIGNY-LA-LBROSSE ALIFO	48.1667	2.0000	http://www.geonames.org/6614750/montigny.html
08.0.075	FRR075	Romance	Gallo-Roman	Chenou	48.1654	2.6592	Chenou	Chenou	CHENOU	48.1667	2.6667	http://www.geonames.org/3025499/chenou.html
08.0.076	FRR076	Romance	Gallo-Roman	Molinons	48.2325	3.5363	Molinons	Molinons	MOLINONS	48.1667	3.3333	http://www.geonames.org/6445932/molinons.html
08.0.077	FRR077	Romance	Gallo-Roman	Rouilly-Saint-Loup	48.2632	4.1466	Rouilly-sur-Loup	Rouilly-sur-Loup	ROUILLY-SUR-LOUP	48.1667	4.0000	http://www.geonames.org/2982546/rouilly-saint-loup.html
08.0.078	FRR078	Romance	Gallo-Roman	Baroville	48.1925	4.7222	Baroville	Baroville	BAROVILLE	48.1667	4.6667	http://www.geonames.org/6620036/baroville.html
08.0.079	FRR079	Romance	Gallo-Roman	Illoud	48.2092	5.5613	Illoud	Illoud	ILLOUD	48.1667	5.3333	http://www.geonames.org/3030950/bourg-sainte-marie.html
08.0.080	FRR080	Romance	Gallo-Roman	Les Voivres	48.0314	6.2957	Les Voivres	Les_Voivres	LES VOIVRES	48.1667	6.0000	http://www.geonames.org/6456619/les-voivres.html
08.0.081	FRR081	Romance	Gallo-Roman	Champ-le-Duc	48.1942	6.7192	Champ-le-Duc	Champ-le-Duc	CHAMP-LE-DUC	48.1667	6.6667	http://www.geonames.org/6451805/champ-le-duc.html
08.0.082	FRR082	Romance	Gallo-Roman	Plumelec	47.8377	-2.6394	Plumelec	Plumelec	PLUMELEC	47.8333	-2.3333	http://www.geonames.org/2986611/plumelec.html
08.0.083	FRR083	Romance	Gallo-Roman	Messac	47.8248	-1.8079	Messac	Messac	MESSAC	47.8333	-1.6667	http://www.geonames.org/6432752/messac.html
08.0.084	FRR084	Romance	Gallo-Roman	Congrier	47.8090	-1.1164	Conquier	Conquier	CONQUIER	47.8333	-1.0000	http://www.geonames.org/3023907/congrier.html
08.0.085	FRR085	Romance	Gallo-Roman	Villaines-sous-Malicorne	47.7628	-0.1010	Villaines-sous-Malicorne	Villaines-sous-Malicorne	VILLAINES-SOUS-MALICORNE	47.8333	-0.3333	http://www.geonames.org/6442775/villaines-sous-malicorne.html
08.0.086	FRR086	Romance	Gallo-Roman	Saint-Pierre-du-Lorouër	47.8057	0.5215	St. Pierre-du-Loronët	St._Pierre-du-Loronët	S. PIERRE-DU-LORONET	47.8333	0.3333	http://www.geonames.org/6442722/saint-pierre-du-lorouer.html
08.0.087	FRR087	Romance	Gallo-Roman	St. Ouen	47.8097	1.0818	St. Ouen	St._Ouen	S. OUEN	47.8333	1.0000	http://www.geonames.org/6454134/saint-ouen.html
08.0.088	FRR088	Romance	Gallo-Roman	Saint-Ay	47.8666	1.7506	Saint-Ay	St._Ay	S. AY	47.8333	1.6667	http://www.geonames.org/2981488/saint-ay.html
08.0.089	FRR089	Romance	Gallo-Roman	Poilly	47.6766	2.5943	Poilly	Poilly	POILLY	47.8333	2.3333	http://www.geonames.org/2986546/poilly-lez-gien.html
08.0.090	FRR090	Romance	Gallo-Roman	La Celle-St. Cyr	47.9744	3.2887	La Celle-St. Cyr	La_Celle-St._Cyr	LA CELLE-S.CYR	47.8333	3.0000	http://www.geonames.org/3010528/la-celle-saint-cyr.html
08.0.091	FRR091	Romance	Gallo-Roman	Maligny	47.8694	3.7643	Maligny	Maligny	MALIGNY	47.8333	3.6667	http://www.geonames.org/2996415/maligny.html
08.0.092	FRR092	Romance	Gallo-Roman	Crusy-le-Châtel	47.8564	4.2124	Crusy-le-Châtel	Crusy-le-Châtel	CRUSY-LE-CHATEL	47.8333	4.3333	http://www.geonames.org/3022204/cruzy-le-chatel.html
08.0.093	FRR093	Romance	Gallo-Roman	Cour-L'Evêque	47.9658	4.9768	Cour-L'Evêque	Cour-L'Evêque	COUR-L'EVEQUE	47.8333	5.0000	http://www.geonames.org/6614685/cour-l-eveque.html
08.0.094	FRR094	Romance	Gallo-Roman	Coiffy-le-Haut	47.9067	5.6969	Coiffy-le-Haut	Coiffy-le-Haut	COIFFY-LE-HAUT	47.8333	5.6667	http://www.geonames.org/6436140/coiffy-le-haut.html
08.0.095	FRR095	Romance	Gallo-Roman	Conflans-sur-Lanterne	47.8151	6.2086	Conflans-sur-Lanterne	Conflans-sur-Lanterne	CONFLANS-SUR-LANTERNE	47.8333	6.3333	http://www.geonames.org/6617476/conflans-sur-lanterne.html
08.0.096	FRR096	Romance	Gallo-Roman	Rouge Goutte	47.7321	6.8513	Rouge Goutte	Rouge_Goutte	ROUGE GOUTTE	47.6667	7.0000	http://www.geonames.org/6451932/rougegoutte.html
08.0.097	FRR097	Romance	Gallo-Roman	Besné	47.3966	-2.0923	Besné	Besné	BESNE	47.5000	-2.0000	http://www.geonames.org/6449071/besne.html
08.0.098	FRR098	Romance	Gallo-Roman	Issé	47.6235	-1.4509	Issé	Issé	ISSE	47.5000	-1.3333	http://www.geonames.org/6449106/isse.html
08.0.099	FRR099	Romance	Gallo-Roman	Avrillé	47.5053	-0.5906	Avrillé	Avrillé	AVRILLE	47.5000	-0.6667	http://www.geonames.org/6458642/avrille.html
08.0.100	FRR100	Romance	Gallo-Roman	Bocé	47.5054	-0.0828	Bocé	Bocé	BOCE	47.5000	0.0000	http://www.geonames.org/3032173/boce.html
08.0.101	FRR101	Romance	Gallo-Roman	St. Antoine du Rocher	47.4896	0.6296	St. Antoine du Rocher	St._Antoine_du_Rocher	S. ANTOINE DU ROCHER	47.5000	0.6667	http://www.geonames.org/6433098/saint-antoine-du-rocher.html
08.0.102	FRR102	Romance	Gallo-Roman	Suèvres	47.6672	1.4606	Suèvres	Suèvres	SUEVRES	47.5000	1.3333	http://www.geonames.org/6434139/suevres.html
08.0.103	FRR103	Romance	Gallo-Roman	Nouan-le-Fuzelier	47.5365	2.0383	Nouan-le-Fuzelier	Nouan-le-Fuzelier	NOUAN-LE-FUZELIER	47.5000	2.0000	http://www.geonames.org/6434072/nouan-le-fuzelier.html
08.0.104	FRR104	Romance	Gallo-Roman	Cernoy-en-Berry	47.5384	2.6588	Cernoy-en-Berry	Cernoy-en-Berry	CERNOY-EN-BERRY	47.5000	2.6667	http://www.geonames.org/6449166/cernoy-en-berry.html
08.0.105	FRR105	Romance	Gallo-Roman	Oudan	47.3466	3.3493	Oudan	Oudan	OUDAN	47.5000	3.3333	http://www.geonames.org/2989063/oudan.html
08.0.106	FRR106	Romance	Gallo-Roman	Magny	47.4825	3.9776	Magny	Magny	MAGNY	47.5000	4.0000	http://www.geonames.org/2996775/magny.html
08.0.107	FRR107	Romance	Gallo-Roman	Gissey-sous-Flavigny	47.5128	4.5899	Gissey-sous-Flavigny	Gissey-sous-Flavigny	GISSEY-SOUS-FLAVIGNY	47.5000	4.6667	http://www.geonames.org/3015922/gissey-sous-flavigny.html
08.0.108	FRR108	Romance	Gallo-Roman	Champlitte	47.6167	5.5132	Champlitte	Champlitte	CHAMPLITTE	47.5000	5.3333	http://www.geonames.org/6617472/champlitte.html
08.0.109	FRR109	Romance	Gallo-Roman	Fresne-Saint-Mamès	47.5488	5.8600	Fresnes-s.-Mamès	Fresnes-s.-Mamès	FRESNES-S.-MAMES	47.5000	6.0000	http://www.geonames.org/6441953/fresne-saint-mames.html
08.0.110	FRR110	Romance	Gallo-Roman	Villers-la-Ville	47.5477	6.4636	Villers-la-Ville	Villers-la-Ville	VILLERS-LA-VILLE	47.5000	6.6667	http://www.geonames.org/6442166/villers-la-ville.html
08.0.111	FRR111	Romance	Gallo-Roman	Chémèré	47.1222	-1.9151	Chémèré	Chémèré	CHEMERE	47.1667	-2.0000	http://www.geonames.org/6614150/chemere.html
08.0.112	FRR112	Romance	Gallo-Roman	Gorges	47.1018	-1.3039	Gorges	Gorges	GORGES	47.1667	-1.3333	http://www.geonames.org/6449099/gorges.html
08.0.113	FRR113	Romance	Gallo-Roman	Chemillé	47.2101	-0.7274	Chemillé	Chemillé	CHEMILLE	47.1667	-0.6667	http://www.geonames.org/6455148/chemille-melay.html
08.0.114	FRR114	Romance	Gallo-Roman	St. Nicolas-de-Bourgueil	47.2849	0.1253	St. Nicolas-de-Bourgueil	St._Nicolas-de-Bourgueil	S. NICOLAS-DE-BOURGUEIL	47.1667	0.0000	http://www.geonames.org/6433119/saint-nicolas-de-bourgueil.html
08.0.115	FRR115	Romance	Gallo-Roman	Marcé-sur-Esves	47.0301	0.6531	Marée-dur-Esves	Marée-dur-Esves	MAREE-SUR-ESVES	47.1667	0.6667	http://www.geonames.org/2996040/marce-sur-esves.html
08.0.116	FRR116	Romance	Gallo-Roman	La Vernelle	47.2480	1.5420	La Vernelle	La_Vernelle	LA VERNELLE	47.1667	1.3333	http://www.geonames.org/3005659/la-vernelle.html
08.0.117	FRR117	Romance	Gallo-Roman	Berry-Bouy	47.1110	2.2897	Berry-Bouy	Berry-Bouy	BERRY-BOUY	47.1667	2.0000	http://www.geonames.org/6447434/berry-bouy.html
08.0.118	FRR118	Romance	Gallo-Roman	Azy	47.1831	2.7078	Azy	Azy	AZY	47.1667	2.6667	http://www.geonames.org/6447428/azy.html
08.0.119	FRR119	Romance	Gallo-Roman	Parigny-les-Vaux	47.0921	3.1473	Parigny-les-Vaux	Parigny-les-Vaux	PARIGNY-LES-VAUX	47.1667	3.3333	http://www.geonames.org/6438046/parigny-les-vaux.html
08.0.120	FRR120	Romance	Gallo-Roman	St. Martin-de-la-Mer	47.2377	4.2335	St. Martin-de-la-Mer	St._Martin-de-la-Mer	S. MARTIN-DE-LA-MER	47.1667	4.0000	http://www.geonames.org/2978380/saint-martin-de-la-mer.html
08.0.121	FRR121	Romance	Gallo-Roman	Morey	46.8013	4.6001	Morey	Morey	MOREY	47.1667	4.6667	http://www.geonames.org/6454625/morey.html
08.0.122	FRR122	Romance	Gallo-Roman	Amange	47.1632	5.5644	Amange	Amange	AMANGE	47.1667	5.3333	http://www.geonames.org/3037970/amange.html
08.0.123	FRR123	Romance	Gallo-Roman	Bouclans	47.2501	6.2372	Bouclans	Bouclans	BOUCLANS	47.1667	6.0000	http://www.geonames.org/6447852/bouclans.html
08.0.124	FRR124	Romance	Gallo-Roman	Avoudrey	47.1339	6.4356	Avoudrey	Avondrey	AVONDREY	47.1667	6.6667	http://www.geonames.org/6447826/avoudrey.html
08.0.125	FRR125	Romance	Gallo-Roman	Givrand	46.6713	-1.8838	Givrand	Givrand	GIVRAND	46.8333	-1.6667	http://www.geonames.org/6445128/givrand.html
08.0.126	FRR126	Romance	Gallo-Roman	La Verrie	46.9625	-0.9969	La Verrie	La_Verrie	LA VERRIE	46.8333	-1.0000	http://www.geonames.org/3005640/la-verrie.html
08.0.127	FRR127	Romance	Gallo-Roman	Oroux	46.6922	-0.0895	Oroux	Oroux	OROUX	46.8333	-0.3333	http://www.geonames.org/6444165/oroux.html
08.0.128	FRR128	Romance	Gallo-Roman	Dissay	46.7003	0.4307	Dissay	Dissay	DISSAY	46.8333	0.3333	http://www.geonames.org/6451683/dissay.html
08.0.129	FRR129	Romance	Gallo-Roman	St. Genou	46.9305	1.3387	St. Genou	St._Genou	S. GENOU	46.8333	1.0000	http://www.geonames.org/6432974/saint-genou.html
08.0.130	FRR130	Romance	Gallo-Roman	Neuvy-Pailloux	46.8864	1.8589	Neuvy-Pailloux	Neuvy-Pailloux	NEUVY-PAILLOUX	46.8333	1.6667	http://www.geonames.org/6432930/neuvy-pailloux.html
08.0.131	FRR131	Romance	Gallo-Roman	Bruère	46.7678	2.4312	Bruère	Bruère	BRUERE	46.8333	2.3333	http://www.geonames.org/6447443/bruere-allichamps.html
08.0.132	FRR132	Romance	Gallo-Roman	Marcigny	46.7871	3.0973	Marcigny	Marcigny	MARCIGNY	46.8333	3.0000	http://www.geonames.org/2995982/marcigny.html
08.0.133	FRR133	Romance	Gallo-Roman	Luzy	46.7891	3.9699	Luzy	Luzy	LUZY	46.8333	3.6667	http://www.geonames.org/6438005/luzy.html
08.0.134	FRR134	Romance	Gallo-Roman	Mesvres	46.8623	4.2407	Mesvres	Mesvres	MESVRES	46.8333	4.3333	http://www.geonames.org/6442320/mesvres.html
08.0.135	FRR135	Romance	Gallo-Roman	Thurey	46.7429	5.1213	Thurey	Thurey	THUREY	46.8333	5.0000	http://www.geonames.org/2972646/thurey.html
08.0.136	FRR136	Romance	Gallo-Roman	Montain	46.7205	5.5797	Montain	Montain	MONTAIN	46.8333	5.6667	http://www.geonames.org/6433647/montain.html
08.0.137	FRR137	Romance	Gallo-Roman	La Rivière	46.8681	6.2178	La Rivière	La_Rivière	LA RIVIERE	46.8333	6.3333	http://www.geonames.org/3006888/la-riviere-drugeon.html
08.0.138	FRR138	Romance	Gallo-Roman	Talmont-Saint-Hilaire	46.4664	-1.6187	Talmont	Talmont	TALMONT	46.5000	-1.3333	http://www.geonames.org/6617859/talmont-saint-hilaire.html
08.0.139	FRR139	Romance	Gallo-Roman	Charzais	46.4694	-0.7739	Charzais	Charzeis	CHARZAIS	46.5000	-0.6667	http://www.geonames.org/3026446/charzais.html
08.0.140	FRR140	Romance	Gallo-Roman	Pamproux	46.3959	-0.0556	Pamproux	Pamproux	PAMPROUX	46.5000	0.0000	http://www.geonames.org/6444169/pamproux.html
08.0.141	FRR141	Romance	Gallo-Roman	Sillars	46.4196	0.7683	Sillards	Sillards	SILLARDS	46.5000	0.6667	http://www.geonames.org/6445371/sillars.html
08.0.142	FRR142	Romance	Gallo-Roman	Chaillac	46.4348	1.2974	Chaillac	Chaillac	CHAILLAC	46.5000	1.3333	http://www.geonames.org/6448586/chaillac.html
08.0.143	FRR143	Romance	Gallo-Roman	Culan	46.5468	2.3502	Culan	Culan	CULAN	46.5000	2.0000	http://www.geonames.org/6447472/culan.html
08.0.144	FRR144	Romance	Gallo-Roman	Désertines	46.3548	2.6182	Désertines	Désertines	DESERTINES	46.5000	2.6667	http://www.geonames.org/6446574/desertines.html
08.0.145	FRR145	Romance	Gallo-Roman	Souvigny	46.5339	3.1920	Souvigny	Souvigny	SOUVIGNY	46.5000	3.3333	http://www.geonames.org/2973897/souvigny.html
08.0.146	FRR146	Romance	Gallo-Roman	Chassy	46.5870	4.1142	Chassy	Chassy	CHASSY	46.5000	4.0000	http://www.geonames.org/6617517/chassy.html
08.0.147	FRR147	Romance	Gallo-Roman	Préty	46.5429	4.9407	Préty	Préty	PRETY	46.5000	4.6667	http://www.geonames.org/2985368/prety.html
08.0.148	FRR148	Romance	Gallo-Roman	St. Amour	46.4363	5.3453	St. Amour	St._Amour	S. AMOUR	46.5000	5.3333	http://www.geonames.org/2981805/saint-amour.html
08.0.149	FRR149	Romance	Franco-Provençal	Morbier	46.5367	6.0146	Morbier	Morbier	MORBIER	46.5000	6.0000	http://www.geonames.org/2991880/morbier.html
08.0.150	FRR150	Romance	Gallo-Roman	Sainte-Marie-de-Ré	46.1524	-1.3128	Ste. Marie	Ste._Marie	S. MARIE	46.1667	-1.3333	http://www.geonames.org/2980429/sainte-marie-de-re.html
08.0.151	FRR151	Romance	Gallo-Roman	Clavette	46.1392	-1.0276	Clavette	Clavette	CLAVETTE	46.1667	-1.0000	http://www.geonames.org/6427920/clavette.html
08.0.152	FRR152	Romance	Gallo-Roman	Prissé-la-Charrière	46.1519	-0.4848	Prissé	Prissé	PRISSE	46.1667	-0.3333	http://www.geonames.org/3010184/la-charriere.html
08.0.153	FRR153	Romance	Gallo-Roman	Blanzay	46.2015	0.2548	Blanzay	Blanzay	BLANZAY	46.1667	0.3333	http://www.geonames.org/6455307/blanzay.html
08.0.154	FRR154	Romance	Gallo-Roman	Châteauponsac	46.1342	1.2765	Château-Ponsac	Château-Ponsac	CHATEAU-PONSAC	46.1667	1.0000	http://www.geonames.org/6451708/chateauponsac.html
08.0.155	FRR155	Romance	Gallo-Roman	Dun-le-Pallestel	46.3048	1.6643	Dun-le-Palleteau	Dun-le-Palleteau	DUN-LE-PALLETEAU	46.1667	1.6667	http://www.geonames.org/6447728/dun-le-palestel.html
08.0.156	FRR156	Romance	Gallo-Roman	Auzances	46.0251	2.5007	Auzances	Auzances	AUZANCES	46.1667	2.3333	http://www.geonames.org/6447686/auzances.html
08.0.157	FRR157	Romance	Gallo-Roman	Chantelle	46.2388	3.1516	Chantelle	Chantelle	CHANTELLE	46.1667	3.0000	http://www.geonames.org/6454907/chantelle.html
08.0.158	FRR158	Romance	Gallo-Roman	Ambierle	46.1042	3.8957	Ambierle	Ambierle	AMBRIERLE	46.1667	3.6667	http://www.geonames.org/6452313/ambierle.html
08.0.159	FRR159	Romance	Gallo-Roman	Cours-la-Ville	46.0992	4.3216	Cours	Cours	COURS	46.1667	4.3333	http://www.geonames.org/6614554/cours-la-ville.html
08.0.160	FRR160	Romance	Gallo-Roman	Replonges	46.3094	4.8826	Replonges	Replonges	REPLONGES	46.1667	5.0000	http://www.geonames.org/2983942/replonges.html
08.0.161	FRR161	Romance	Franco-Provençal	Brion	46.1727	5.5531	Brion	Brion	BRION	46.1667	5.6667	http://www.geonames.org/2978302/saint-martin-du-frene.html
08.0.162	FRR162	Romance	Franco-Provençal	St. Pierre de Rumilly	46.0594	6.3678	St. Pierre de Rumilly	St._Pierre_de_Rumilly	S. PIERRE DE RUMILLY	46.1667	6.3333	http://www.geonames.org/6617613/saint-pierre-en-faucigny.html
08.0.163	FRR163	Romance	Franco-Provençal	Sixt-Fer-à-Cheval	46.0548	6.7756	Sixt	Sixt	SIXT	46.1667	6.8333	http://www.geonames.org/6617617/sixt-fer-a-cheval.html
08.0.164	FRR164	Romance	Gallo-Roman	La Cotinière	45.9164	-1.3306	La Cotinière	La_Corinière	LA COTINIERE	45.8333	-1.3333	http://www.geonames.org/3009878/la-cotiniere.html
08.0.165	FRR165	Romance	Gallo-Roman	Cabariot	45.9252	-0.8567	Cabariot	Cabariot	CABARIOT	45.8333	-1.0000	http://www.geonames.org/6447406/cabariot.html
08.0.166	FRR166	Romance	Gallo-Roman	Varaize	45.9224	-0.4245	Varaize	Varaize	VARAIZE	45.8333	-0.3333	http://www.geonames.org/2970742/varaize.html
08.0.167	FRR167	Romance	Gallo-Roman	Saint Groux	45.8973	0.1671	St. Grouse	St._Grouse	S. GROUSE	45.8333	0.3333	http://www.geonames.org/2979614/saint-groux.html
08.0.168	FRR168	Romance	Gallo-Roman	Limoges	45.8336	1.2611	Limoges	Limoges	LIMOGES	45.8333	1.0000	http://www.geonames.org/6451740/limoges.html
08.0.169	FRR169	Romance	Gallo-Roman	Eymoutiers	45.7387	1.7422	Eymoutiers	Eymoutiers	EYMOUTIERS	45.8333	1.6667	http://www.geonames.org/6451725/eymoutiers.html
08.0.170	FRR170	Romance	Gallo-Roman	Saint-Quentin-la-Chabanne	45.8644	2.1549	St. Quentin	St._Quentin	S. QUENTIN	45.8333	2.3333	http://www.geonames.org/6429310/saint-quentin-la-chabanne.html
08.0.171	FRR171	Romance	Gallo-Roman	Pontgibaud	45.8317	2.8529	Pontgibaud	Pontgibaud	PONTGIBAUD	45.8333	3.0000	http://www.geonames.org/2986185/pontgibaud.html
08.0.172	FRR172	Romance	Gallo-Roman	Thiers	45.8579	3.5452	Thiers	Thiers	THIERS	45.8333	3.6667	http://www.geonames.org/6440251/thiers.html
