ALEpointcodeOLD	ALEpointcodeNEW	LanguageGroup	PlaceName	Latitude	Longitude	PlaceNameBasetable	PlaceNameALEOld	LatitudeALEOld	LongitudeALEOld	GeonamesURL
01.0.001	ALAl001	Albanian	Vrith	42.3328	19.5414	Vrith	VRITH	42.3000	19.5833	http://www.geonames.org/3183693/vrith.html
01.0.002	ALAl002	Albanian	Pac	42.2875	20.2089	Pac	PAC	42.2500	20.1667	http://www.geonames.org/782109/pac.html
01.0.003	ALAl003	Albanian	Burgajet	41.6365	20.0595	Burgajet	BURGAJET	41.6667	20.0833	http://www.geonames.org/783501/burgajet.html
01.0.004	ALAl004	Albanian	Shkallnuer	41.2898	19.5174	Shkallnuer	SHKALLNUER	41.2500	19.5833	http://www.geonames.org/3184087/shkallnur.html
01.0.005	ALAl005	Albanian	Çibërraka	41.1663	20.2064	Xibrakë	XIBRAKE	41.1667	20.1667	http://www.geonames.org/781156/xibrake.html
01.0.006	ALAl006	Albanian	Këmbëthekër	40.7542	20.6839	Këmbëthekër	KEMBETHEKER	40.7500	20.6667	http://www.geonames.org/782838/kembetheker.html
01.0.007	ALAl007	Albanian	Luar	40.7006	19.7028	Luar	LUAR	40.6667	19.7500	http://www.geonames.org/3184893/luar.html
01.0.008	ALAl008	Albanian	Sheper	40.1714	20.3058	Sheper	SHEPER	40.1667	20.3000	http://www.geonames.org/781681/sheper.html
01.0.009	ALAl009	Albanian	Vuno	40.1397	19.6936	Vuno	VUNO	40.1667	19.7000	http://www.geonames.org/3183686/vuno.html
01.0.010	ALAl010	Albanian	Shalës	39.7139	20.1611	Shalës	SHALES	39.7000	20.1667	http://www.geonames.org/363238/shales.html
02.0.001	ATG001	Germanic	Schärding	48.4605	13.4327	Schärding	SCHAERDING	48.4167	13.5000	http://www.geonames.org/7872135/schaerding.html
02.0.002	ATG002	Germanic	Geboltskirchen	48.1532	13.6340	Geboltskirchen	GEBOLTSKIRCHEN	48.1667	13.5833	http://www.geonames.org/2778766/geboltskirchen.html
02.0.003	ATG003	Germanic	Rohrbach	48.5723	13.9900	Rohrbach	ROHRBACH	48.5833	14.0000	http://www.geonames.org/7873203/rohrbach-in-oberoesterreich.html
02.0.004	ATG004	Germanic	Kremsmünster	48.0544	14.1262	Kremsmünster	KREMSMUENSTER	48.0833	14.1667	http://www.geonames.org/7871034/kremsmuenster.html
02.0.005	ATG005	Germanic	Göstling	47.8072	14.9354	Göstling	GOESTLING	47.8333	14.9167	http://www.geonames.org/2764290/stixenlehen.html
02.0.006	ATG006	Germanic	Freistadt	48.5022	14.5020	Freistadt	FREISTADT	48.5000	14.5000	http://www.geonames.org/7871993/freistadt.html
02.0.007	ATG007	Germanic	Grosspertholz	48.6297	14.8266	Grosspertholz	GROSSPERTHOLZ	48.7500	15.0000	http://www.geonames.org/2764535/steinbach.html
02.0.008	ATG008	Germanic	Waidhofen a.d. Thaya	48.8148	15.2838	Waidhofen_a.d._Thaya	WAIDHOFEN A.D. THAYA	48.8333	15.3333	http://www.geonames.org/2774120/kleingoepfritz.html
02.0.009	ATG009	Germanic	Hürm bei Melk	48.1561	15.4131	Hürm_bei_Melk	HUERM BEI MELK	48.2500	15.3333	http://www.geonames.org/2775386/huerm.html
02.0.010	ATG010	Germanic	Unterretzbach	48.7670	16.0037	Unterretzbach	UNTERRETZBACH	48.7500	16.0000	http://www.geonames.org/2762687/unterretzbach.html
02.0.011	ATG011	Germanic	Absdorf	48.4001	15.9794	Absdorf	ABSDORF	48.4167	16.0000	http://www.geonames.org/2783055/absdorf.html
02.0.012	ATG012	Germanic	Mistelbach	48.5674	16.5722	Mistelbach	MISTELBACH	48.5833	16.5833	http://www.geonames.org/2772944/lanzendorf.html
02.0.013	ATG013	Germanic	Stillfried	48.4106	16.8455	Stillfried	STILLFRIED	48.4167	16.8333	http://www.geonames.org/2764304/stillfried.html
02.0.014	ATG014	Germanic	Schruns	47.0803	9.9192	Schruns	SCHRUNS	47.1667	9.9167	http://www.geonames.org/2765581/schruns.html
02.0.015	ATG015	Germanic	Schnepfau	47.3520	9.9441	Schnepfau	SCHNEPFAU	47.4167	10.0000	http://www.geonames.org/2765798/schnepfau.html
02.0.017	ATG017	Germanic	Elbigenalp	47.2882	10.4332	Elbingenalp	ELBINGENALP	47.4167	10.5000	http://www.geonames.org/2780153/elbigenalp.html
02.0.018	ATG018	Germanic	Münster	47.4216	11.8336	Münster	MUENSTER	47.3333	11.5833	http://www.geonames.org/2771028/muenster.html
02.0.019	ATG019	Germanic	Zell am Ziller	47.2334	11.8819	Zell_am_Ziller	ZELL AM ZILLER	47.2500	11.9167	http://www.geonames.org/2760632/zell-am-ziller.html
02.0.020	ATG020	Germanic	Brixen im Thale	47.4500	12.2500	Brixen_bei_Kitzbühl	BRIXEN BEI KITZBUEHL	47.5000	12.3333	http://www.geonames.org/2781394/brixen-im-thale.html
02.0.021	ATG021	Germanic	Piesendorf	47.2898	12.7184	Piesendorf	PIESENDORF	47.2500	12.5000	http://www.geonames.org/7872246/piesendorf.html
02.0.022	ATG022	Germanic	Saalfelden	47.4274	12.8411	Saalfelden	SAALFELDEN	47.5000	12.8333	http://www.geonames.org/2766922/saalfelden-am-steinernen-meer.html
02.0.024	ATG024	Germanic	Dorfbeuern	48.0214	13.0159	Dorfbeuren	DORFBEUREN	47.9167	13.0833	http://www.geonames.org/2780811/dorfbeuern.html
02.0.025	ATG025	Germanic	Zederhaus	47.1542	13.5048	Zederhaus	ZEDERHAUS	47.1667	13.5000	http://www.geonames.org/2760704/zederhaus.html
02.0.026	ATG026	Germanic	Ebensee	47.8071	13.7790	Ebensee	EBENSEE	47.7500	13.8333	http://www.geonames.org/2780547/ebensee.html
02.0.027	ATG027	Germanic	Stainach	47.5325	14.1084	Stainach	STAINACH	47.5000	14.0833	http://www.geonames.org/2764708/stainach.html
02.0.028	ATG028	Germanic	Niederwölz	47.1516	14.3740	Niederwölz	MURAU	47.1667	14.2500	http://www.geonames.org/2770496/niederwoelz.html
02.0.029	ATG029	Germanic	Kammern	47.3927	14.9041	Kammern	KAMMERN	47.4167	14.7500	http://www.geonames.org/7872424/kammern-im-liesingtal.html
02.0.030	ATG030	Germanic	Kainach	47.1408	15.0919	Kainach	KAINACH	47.0833	15.3333	http://www.geonames.org/2774977/kainach-bei-voitsberg.html
02.0.031	ATG031	Germanic	Türnitz a.d. Traisen	47.9298	15.4896	Türnitz_a.d._Traisen	TUERNITZ A.D. TRAISEN	47.9167	15.5000	http://www.geonames.org/7872937/tuernitz.html
02.0.032	ATG032	Germanic	Veitsch	47.5791	15.4923	Veitsch	VEITSCH	47.5833	15.4167	http://www.geonames.org/2762458/veitsch.html
02.0.033	ATG033	Germanic	Weiz	47.2172	15.6230	Weiz	WEIZ	47.1667	15.5833	http://www.geonames.org/2773053/landscha-bei-weiz.html
02.0.034	ATG034	Germanic	Schachen bei Vorau	47.3831	15.8567	Schachen_bei_Vorau	SCHACHEN BEI VORAU	47.5000	15.8333	http://www.geonames.org/2772684/lembach.html
02.0.035	ATG035	Germanic	Prigglitz bei Gloggnitz	47.7040	15.9290	Prigglitz_bei_Gloggnitz	PRIGGLITZ BEI GLOGGNITZ	47.6667	15.9167	http://www.geonames.org/2768320/prigglitz.html
02.0.036	ATG036	Germanic	Mogersdorf	46.9474	16.2291	Mogersdorf	MOGERSDORF	47.0000	16.3333	http://www.geonames.org/2771322/mogersdorf.html
02.0.037	ATG037	Germanic	Stegersbach	47.1608	16.1669	Stegersbach	STEGERSBACH	47.1667	16.1667	http://www.geonames.org/2764587/stegersbach.html
02.0.038	ATG038	Germanic	Gols am Neusiedler See	47.8990	16.9093	Gols_am_Neisiedler_See	GOLS AM NEUSIEDLER SEE	47.9167	16.9167	http://www.geonames.org/2778355/gols.html
02.0.039	ATG039	Germanic	Tadten	47.7638	16.9869	Tadten	TADTEN	47.7500	17.0000	http://www.geonames.org/2763960/tadten.html
02.0.040	ATG040	Germanic	Sölden	46.9654	11.0078	Sölden	SOELDEN	46.9167	10.9167	http://www.geonames.org/2764957/soelden.html
02.0.041	ATG041	Germanic	Ausservillgratten	46.7867	12.4286	Ausservillgratten	AUSSERVILLGRATTEN	46.8333	12.4167	http://www.geonames.org/2782118/ausservillgraten.html
02.0.042	ATG042	Germanic	Dellach a.d. Drau	46.7383	13.0846	Dellach_a.d._Drau	DELLACH A.D. DRAU	46.7500	13.0833	http://www.geonames.org/2781054/dellach-im-drautal.html
02.0.043	ATG043	Germanic	Seeboden am Millstättersee	46.8189	13.5188	Seeboden_am_Millstättersee	SEEBODEN AM MILLSTAETTERSEE	46.6667	13.5000	http://www.geonames.org/2765286/seeboden.html
02.0.044	ATG044	Germanic	Weitensfeld im Gurktal	46.8474	14.1921	Weitensfeld_im_Gurktal	WEITENSFELD IM GURKTAL	46.8333	14.2500	http://www.geonames.org/2761547/weitensfeld.html
02.0.046	ATG046	Germanic	Wolfsberg	46.8401	14.8428	Wolfsberg	WOLFSBERG	46.8333	14.8333	http://www.geonames.org/2760910/wolfsberg.html
02.0.047	ATG047	Germanic	Schwanberg	46.7571	15.2000	Schwanberg	SCHWANBERG	46.8333	15.1667	http://www.geonames.org/2765515/schwanberg.html
02.0.048	ATG048	Germanic	Halbenrain	46.7225	15.9475	Halbenrain	MURECK	46.7500	15.8333	http://www.geonames.org/2776959/halbenrain.html
02.1.101	ATS101	Slavic	Großwarasdorf	47.5386	16.5533	Grosswarasdorf	GROSSWARASDORF (VELINI BORISTOF)	47.0333	16.0000	http://www.geonames.org/2777550/grosswarasdorf.html
02.1.102	ATS102	Slavic	Ludmannsdorf	46.5418	14.1351	Ludmannsdorf	LUDMANNSDORF (BELCOVS)	46.7500	15.4167	http://www.geonames.org/2772226/ludmannsdorf.html
03.1.101	BER101	Romance	Fontenoy	50.5678	3.4732	Fontenoy	FONTENOY	50.5833	3.5000	http://www.geonames.org/2798153/fontenoy.html
03.1.102	BER102	Romance	Pâturages	50.4048	3.8383	Pâturages	PATURAGES	50.5000	3.8333	http://www.geonames.org/2789254/paturages.html
03.1.103	BER103	Romance	Jamioulx	50.3528	4.4128	Jamioulx	JAMIOULX	50.3333	4.4167	http://www.geonames.org/2794974/jamioulx.html
03.1.104	BER104	Romance	Jauchelette	50.6863	4.8436	Jauchelette	JAUCHELETTE	50.6667	4.8333	http://www.geonames.org/2794956/jauchelette.html
03.1.105	BER105	Romance	Spontin	50.3226	5.0070	Spontin	SPONTIN	50.3333	5.0000	http://www.geonames.org/2786254/spontin.html
03.1.106	BER106	Romance	Flémalle-Haute	50.6002	5.4460	Flémalle-Haute	FLEMALLE-HAUTE	50.5833	5.4167	http://www.geonames.org/2798307/flemalle-haute.html
03.1.107	BER107	Romance	Francorchamps	50.4531	5.9531	Francorchamps	FRANCORCHAMPS	50.4167	5.9167	http://www.geonames.org/2798003/francorchamps.html
03.1.108	BER108	Romance	Tillet	50.0105	5.5297	Tillet	TILLET	50.0000	5.5000	http://www.geonames.org/2785442/tillet.html
03.1.109	BER109	Romance	Buzenol	49.6481	5.5948	Buzenol	BUZENOL	49.6667	5.5833	http://www.geonames.org/2800698/buzenol.html
04.0.001	BGS001	Slavic	Garvan	44.0857	26.9055	Garvan	GARVAN	44.0000	27.0000	http://www.geonames.org/731506/garvan.html
04.0.002	BGS002	Slavic	Rakovica	43.7640	22.4713	Rakovica	RAKOVICA	43.8333	22.5000	http://www.geonames.org/727795/rakovitsa.html
04.0.003	BGS003	Slavic	Brakjovci	43.0617	23.1552	Brakjovci	BRAKJOVCI	43.0833	23.0833	http://www.geonames.org/732940/brak-ovtsi.html
04.0.004	BGS004	Slavic	Slavotin	43.5585	23.0683	Slavotin	SLAVOTIN	43.6667	23.3333	http://www.geonames.org/727099/slavotin.html
04.0.005	BGS005	Slavic	Altimir	43.5254	23.8085	Altimir	ALTIMIR	43.5833	24.0000	http://www.geonames.org/6461511/altimir.html
04.0.006	BGS006	Slavic	Staro selo	43.1579	23.8341	Staro_selo	STARO SELO	43.0833	24.0833	http://www.geonames.org/726823/staro-selo.html
04.0.007	BGS007	Slavic	Brest	43.6448	24.5895	Brest	BREST	43.5833	24.6667	http://www.geonames.org/732910/brest.html
04.0.008	BGS008	Slavic	Stojanovo	43.1227	24.6023	Stojanovo	STOJANOVO	43.1667	24.6667	http://www.geonames.org/726768/stoyanovo.html
04.0.009	BGS009	Slavic	Dekov	43.6025	25.1179	Dekov	DEKOV	43.5833	25.2500	http://www.geonames.org/6460217/dekov.html
04.0.010	BGS010	Slavic	Višovgrad	43.1563	25.2988	Visovgrad	VISOVGRAD	43.0833	25.4167	http://www.geonames.org/725869/vishovgrad.html
04.0.011	BGS011	Slavic	Kesarevo	43.1525	25.9754	Kesarevo	KESAREVO	43.1667	26.0000	http://www.geonames.org/730475/kesarevo.html
04.0.012	BGS012	Slavic	Hlebarovo	43.6067	26.2410	Hlebarvovo	HLEBARVOVO	43.5833	26.3333	http://www.geonames.org/730415/tsar-kaloyan.html
04.0.013	BGS013	Slavic	Vardun	43.1333	26.5333	Vardun	VARDUN	43.0833	26.7500	http://www.geonames.org/726053/vardun.html
04.0.014	BGS014	Slavic	Medovo	43.6086	27.5351	Medovo	MEDOVO	43.6667	27.5833	http://www.geonames.org/729162/medovo.html
04.0.015	BGS015	Slavic	Krivnja	43.1948	27.3966	Krivnja	KRIVNJA	43.0833	27.6667	http://www.geonames.org/6459851/krivnja.html
04.0.016	BGS016	Slavic	Trekljano	42.5509	22.5970	Trekljano	TREKLJANO	42.6667	22.6667	http://www.geonames.org/726351/obshtina-treklyano.html
04.0.017	BGS017	Slavic	Stob	42.0955	23.1052	Stob	STOB	42.1667	23.0833	http://www.geonames.org/726791/stob.html
04.0.018	BGS018	Slavic	Rakitovo	41.9895	24.0875	Rakitovo	RAKITOVO	42.0833	24.0000	http://www.geonames.org/727801/rakitovo.html
04.0.019	BGS019	Slavic	Smolsko	42.6394	23.9429	Smolsko	SMOLSKO	42.7500	24.0000	http://www.geonames.org/6461696/smolsko.html
04.0.020	BGS020	Slavic	Dăbene	42.5982	24.7659	Dabene	DABENE	42.6667	24.8333	http://www.geonames.org/731873/dubene.html
04.0.021	BGS021	Slavic	Brestnik	42.0563	24.7677	Brestnik	BRESTNIK	42.0833	24.9167	http://www.geonames.org/732905/brestnik.html
04.0.022	BGS022	Slavic	Šipka	42.7123	25.3329	Sipka	SIPKA	42.7500	25.4167	http://www.geonames.org/727291/shipka.html
04.0.023	BGS023	Slavic	Karadžalovo	42.0946	25.3138	Karadzalovo	KARADZALOVO	42.2500	25.5000	http://www.geonames.org/730622/karadzhalovo.html
04.0.024	BGS024	Slavic	Korten	42.5445	25.9963	Korten	KORTEN	42.5833	26.0000	http://www.geonames.org/730143/korten.html
04.0.025	BGS025	Slavic	Glavan	42.0676	26.1068	Glavan	GLAVAN	42.0833	26.0833	http://www.geonames.org/6460328/glavan.html
04.0.026	BGS026	Slavic	Devetinci	42.6000	26.8333	Devetinci	DEVETINCI	42.5833	26.7500	http://www.geonames.org/732288/devetintsi.html
04.0.027	BGS027	Slavic	Ružica	42.1522	26.8783	Ruzica	RUZICA	42.1667	26.8333	http://www.geonames.org/727493/ruzhitsa.html
04.0.028	BGS028	Slavic	Stoilovo	42.0387	27.5174	Stoilovo	STOILOVO	42.0833	27.6667	http://www.geonames.org/726786/stoilovo.html
04.0.029	BGS029	Slavic	Levunovo	41.4881	23.3045	Levanono	LEVANOVO	41.5000	23.2500	http://www.geonames.org/729634/levunovo.html
04.0.030	BGS030	Slavic	Tešovo	41.4673	23.6964	Tesovo	TESOVO	41.5833	23.7500	http://www.geonames.org/726465/teshovo.html
04.0.031	BGS031	Slavic	Smiljan	41.5058	24.7242	Smiljan	SMILJAN	41.5000	25.0000	http://www.geonames.org/6461325/smiljan.html
04.0.032	BGS032	Slavic	Tihomir	41.3116	25.4965	Tihomor	TIHOMIR	41.5000	25.8333	http://www.geonames.org/726455/tikhomir.html
05.0.001	DKG001	Germanic	Børglum	57.3653	9.8385	Børglum	VENDSYSSEL	57.3333	9.8333	http://www.geonames.org/2623740/borglum.html
05.0.002	DKG002	Germanic	Sennels	56.9658	8.7954	Sennels	THY	57.0000	8.5000	http://www.geonames.org/2614076/sennels.html
05.0.003	DKG003	Germanic	Tvis	56.3212	8.7069	Tvis	VESTJYLLAND NORD	56.3333	8.6667	http://www.geonames.org/2611068/tvis.html
05.0.004	DKG004	Germanic	Ars	56.8045	9.5102	Ars	HIMMERLAND VEST	56.8333	9.3333	http://www.geonames.org/2624602/aars.html
05.0.005	DKG005	Germanic	Houlbjerg	56.3440	9.8725	Houlbjerg	OSTJYLLAND NORD	56.3333	9.8333	http://www.geonames.org/2619741/houlbjerg.html
05.0.006	DKG006	Germanic	Lyngby	56.8435	10.0397	Lyngby	HIMMERLAND OST	56.8333	10.0000	http://www.geonames.org/2617235/lyngby.html
05.0.007	DKG007	Germanic	Tved	56.2000	10.4333	Tved	MOLS	56.1667	10.5000	http://www.geonames.org/2611100/tved.html
05.0.008	DKG008	Germanic	Aal	55.6314	8.2709	Al	VESTJYLLAND SYD	55.5833	8.3333	http://www.geonames.org/2624794/al-plantage.html
05.0.009	DKG009	Germanic	Vodder	55.2204	8.8440	Vodder	SONDERJYLLAND VEST, VESTSLESVIG	55.2500	8.8333	http://www.geonames.org/2610100/vodder.html
05.0.010	DKG010	Germanic	Barrit	55.7120	9.8906	Barrit	OSTJYLLAND SYD	55.7500	9.8333	http://www.geonames.org/2624289/barrit.html
05.0.011	DKG011	Germanic	Flemløse	55.2505	10.0688	Flemløse	VESTFYN	55.3333	10.0000	http://www.geonames.org/2622098/flemlose.html
05.0.012	DKG012	Germanic	Revninge	55.4182	10.6560	Revninge	OSTFYN	55.4167	10.6667	http://www.geonames.org/2614836/revninge.html
05.0.013	DKG013	Germanic	Kolby	55.7976	10.5556	Kolby	SAMSO	55.8333	10.5833	http://www.geonames.org/2618536/kolby.html
05.0.014	DKG014	Germanic	Buerup	55.5928	11.3397	Buerup	VESTSJAELLAND	55.5000	11.3333	http://www.geonames.org/2623262/buerup.html
05.0.015	DKG015	Germanic	Lille Lyngby	55.9506	12.1382	Lille_Lyngby	NORDSJAELLAND	55.9167	12.1667	http://www.geonames.org/2617676/lille-lyngby.html
05.0.016	DKG016	Germanic	Strøby	55.3829	12.2815	Strøby	OSTSJAELLAND	55.3333	12.2500	http://www.geonames.org/2612212/stroby.html
05.0.017	DKG017	Germanic	Felsted	54.9805	9.5013	Felsted	SONDERJYLLAND OST, OSTSLESVIG	55.0000	9.5833	http://www.geonames.org/2622239/felsted.html
05.0.018	DKG018	Germanic	Snøde	55.0816	10.9097	Snøde	LANGELAND	55.0000	10.8333	http://www.geonames.org/2613290/snode.html
05.0.019	DKG019	Germanic	Toreby	54.7530	11.7876	Thoreby	LOLLAND-FALSTER	54.7500	11.6667	http://www.geonames.org/2611452/toreby.html
05.0.020	DKG020	Germanic	Klemensker	55.1741	14.8067	Klemensker	BORNHOLM, ILE DE	55.0833	15.0000	http://www.geonames.org/2618764/klemensker.html
05.0.301	DEG301	Germanic	Viöl	54.5703	9.1789	Viöl	FJOLDE	54.5833	9.1667	http://www.geonames.org/2817154/vioel.html
06.0.001	ESR001	Romance	Sísamo	43.2135	-8.7153	Sísamo	SISAMO (CORUNA)	43.1167	-8.6667	http://www.geonames.org/3108892/sisamo.html
06.0.002	ESR002	Romance	Aranga	43.2341	-8.0160	Aranga	MONTESALGUEIRO (CORUNA)	43.2500	-7.8333	http://www.geonames.org/3129864/aranga.html
06.0.003	ESR003	Romance	Cervo	43.6698	-7.4095	Cervo	BURELA DE CABO (LUGO)	43.6667	-7.3500	http://www.geonames.org/3125287/cervo.html
06.0.004	ESR004	Romance	Taramundi	43.3604	-7.1083	Taramundi	TARAMUNDI (OVIEDO)	43.3500	-7.1000	http://www.geonames.org/3108320/taramundi.html
06.0.005	ESR005	Romance	Leitariegos	42.9976	-6.4171	Leirariegos	LEITARIEGOS (OVIEDO)	43.0000	-6.4167	http://www.geonames.org/3123319/el-puerto.html
06.0.006	ESR006	Romance	Muros de Nalón	43.5436	-6.1063	Muros_de_Nalón	MUROS DE NALON (OVIEDO)	43.5333	-6.1000	http://www.geonames.org/3115823/muros-de-nalon.html
06.0.007	ESR007	Romance	Pola de Laviana	43.2450	-5.5617	Pola_de_Laviana	POLA DE LAVIANA	43.2500	-5.5500	http://www.geonames.org/3113271/pola-de-laviana.html
06.0.008	ESR008	Romance	Sotres	43.2332	-4.7482	Sotres	SOTRES (AUSTURIAS)	43.2167	-4.7500	http://www.geonames.org/3108572/sotres.html
06.0.009	ESR009	Romance	Lores	42.9965	-4.5305	Lores	LORES (PALENCIA)	43.0000	-4.5333	http://www.geonames.org/6360170/pernia-la.html
06.0.010	ESR010	Romance	Oreña	43.3961	-4.1339	Orena	ORENA (SATANDER)	43.4000	-4.0833	http://www.geonames.org/3114968/orena.html
06.0.011	ESR011	Romance	Campo de Suso	43.0187	-3.9960	Campo_de_Sudo	CAMPO DE YUSO (SATANDER)	43.0333	-3.9167	http://www.geonames.org/3119835/la-costana.html
06.0.012	ESR012	Romance	Laredo	43.4098	-3.4161	Laredo	LAREDO (SATANDER)	43.4000	-3.4000	http://www.geonames.org/3119145/laredo.html
06.0.013	ESR013	Romance	Villasana de Mena	43.1000	-3.2833		VILLASANA DE MENA (BURGOS)	43.0833	-3.2667	http://www.geonames.org/3104847/villasana-de-mena.html
06.0.017	ESR017	Romance	Vera de Bidasoa	43.2809	-1.6830	Vera_de_Bidasoa	VERA DE BIDASOA (NAVARRA)	43.2667	-1.6833	http://www.geonames.org/3106112/bera.html
06.0.018	ESR018	Romance	Carnota	42.8220	-9.0880	Carnota	CARNOTA (CORUNA)	42.8167	-9.0833	http://www.geonames.org/3126254/carnota.html
06.0.019	ESR019	Romance	O Grove	42.4954	-8.8641	O_Grobe	GROVE (PONTEVEDRA)	42.5000	-8.8667	http://www.geonames.org/3121078/o-grove.html
06.0.020	ESR020	Romance	Avión	42.3755	-8.2515	Avión	AVION (ORENSE)	42.3833	-8.2500	http://www.geonames.org/3129126/avion.html
06.0.021	ESR021	Romance	Agolada	42.7617	-8.0206	Agolada	GOLADA (PONTEVEDRA)	42.7500	-8.0000	http://www.geonames.org/3122887/esperante.html
06.0.022	ESR022	Romance	Ríocaldo	41.8715	-8.0994	Riocaldo	VILLAMEA (ORENSE)	42.0167	-7.9833	http://www.geonames.org/3111695/riocaldo.html
06.0.023	ESR023	Romance	Vilarino Frío	42.3175	-7.5413	Vilarinofrío	JUNQUERA DE ESPADANEDO (ORENSE)	42.3167	-7.6000	http://www.geonames.org/3104927/vilarino-frio.html
06.0.024	ESR024	Romance	Bóveda	42.6230	-7.4852	Bóveda	BOVEDA (LUGO)	42.6167	-7.4833	http://www.geonames.org/3127736/boveda.html
06.0.025	ESR025	Romance	Campobecerros	42.0669	-7.3321	Campobacerros	PORTOCAMBA  (ORENSE)	42.0667	-7.3667	http://www.geonames.org/3126780/campobecerros.html
06.0.026	ESR026	Romance	Baralla	42.8921	-7.2549	Neira_de_Xusá	NEIRA DE JUSA (LUGO)	42.8833	-7.2333	http://www.geonames.org/3128828/baralla.html
06.0.027	ESR027	Romance	Oencia	42.5473	-6.9716	Oencia	OENCIA (LEON)	42.5500	-6.9500	http://www.geonames.org/3115244/oencia.html
06.0.028	ESR028	Romance	Castrocontrigo	42.1834	-6.1905	Castrocontrige	CASTROCONTRIGO (LEON)	42.1833	-6.1833	http://www.geonames.org/3125679/castrocontrigo.html
06.0.029	ESR029	Romance	Villagatón	42.6354	-6.1624	Villagulón	VILLAGULON (LEON)	42.6333	-6.1833	http://www.geonames.org/3105572/villagaton.html
06.0.030	ESR030	Romance	La Vecilla	42.8490	-5.4064	La_Vecilla	LA VECILLA (LEON)	42.8333	-5.4000	http://www.geonames.org/3118728/la-vecilla-de-curueno.html
06.0.031	ESR031	Romance	Zorita de la Loma	42.2383	-5.0225	Zorita_de_la_Loma	ZORITA DE LA LOMA (VALLADOLID)	42.3333	-5.0333	http://www.geonames.org/3104262/zorita-de-la-loma.html
06.0.032	ESR032	Romance	Carrión de los Condes	42.3373	-4.6024	Carrión_de_los_Condes	CARRION DE LOS CONDES (PALENCIA)	42.3333	-4.6167	http://www.geonames.org/3126161/carrion-de-los-condes.html
06.0.033	ESR033	Romance	Humada	42.6677	-4.0839	Humada	HUMADA (BURGOS)	42.6667	-4.0667	http://www.geonames.org/3120503/humada.html
06.0.034	ESR034	Romance	Mazuelo de Muño	42.2391	-3.8458	Mazuelo_de_Muno	MAZUELO DE MUNO (BURGOS)	42.2500	-3.8500	http://www.geonames.org/3117056/mazuelo-de-muno.html
06.0.035	ESR035	Romance	Pancorbo	42.6300	-3.1115	Pancorbo	PANCORBO (BURGOS)	42.6167	-3.1167	http://www.geonames.org/3114464/pancorbo.html
06.0.036	ESR036	Romance	Viniegra de Arriba	42.0949	-2.8331	Viniegra_de_Arriba	VINIEGA DE ARRIBA (LOGRONO)	42.1000	-2.8333	http://www.geonames.org/3104566/viniegra-de-arriba.html
06.0.039	ESR039	Romance	Galilea	42.3478	-2.2365	Galilea	GALILEA (LOGRONO)	42.3667	-2.3000	http://www.geonames.org/3121736/galilea.html
06.0.040	ESR040	Romance	Salinas de Oro	42.7755	-1.8893	Salinas_de_Oro	SALINAS DE ORO (NAVARRA)	42.7833	-1.9000	http://www.geonames.org/3111014/salinas-de-oro.html
06.0.041	ESR041	Romance	Sos del Rey Católico	42.4936	-1.2175	Sos_del_Rey_Católico	SOS DEL REY CATOLICO (ZARAGOZA)	42.5000	-1.2167	http://www.geonames.org/3108656/sos-del-rey-catolico.html
06.0.042	ESR042	Romance	Hecho	42.7383	-0.7500	Hecho	HECHO (HUESCA)	42.7500	-0.7500	http://www.geonames.org/3120867/hecho.html
06.0.043	ESR043	Romance	Angüés	42.1108	-0.1536	Angüés	ANGUES (HUESCA)	42.1167	-0.1667	http://www.geonames.org/3130021/anguees.html
06.0.044	ESR044	Romance	Fanlo	42.5874	-0.0213	Fanlo	FANLO (HUESCA)	42.5833	-0.0167	http://www.geonames.org/3122647/fanlo-del-valle-de-vio.html
06.0.045	ESR045	Romance	Noales	42.4586	0.6628	Noales	NOALES (HUESCA)	42.2500	0.4833	http://www.geonames.org/3115444/noales.html
06.0.046	ESR046	Romance	A Guarda	41.9010	-8.8733	La_Guardia	LA GUARDIA (PONTE VEDRA)	41.9000	-8.8833	http://www.geonames.org/3119646/a-guarda.html
06.0.047	ESR047	Romance	Hermisende	41.9683	-6.8961	Hermisende	HERMISENDE (ZAMORA)	41.9667	-6.8833	http://www.geonames.org/3120818/hermisende.html
06.0.048	ESR048	Romance	Fermoselle	41.3166	-6.3940	Fermoselle	FERMOSELLE (ZAMORA)	41.3167	-6.4000	http://www.geonames.org/3122558/fermoselle.html
06.0.049	ESR049	Romance	Pozuelo de Tábara	41.7854	-5.8954	Pozuelo_de_Tábara	POZUELO DE TABARA (ZAMORA)	41.7833	-5.9000	http://www.geonames.org/3112984/pozuelo-de-tabara.html
06.0.050	ESR050	Romance	Venialbo	41.3896	-5.5368	Venialbo	VENIALBO (ZAMORA)	41.3833	-5.5333	http://www.geonames.org/3106173/venialbo.html
06.0.051	ESR051	Romance	Mota del Marqués	41.6283	-5.1764	Mota_der_Marqués	MOTA DEL MARQUES (VALLADOLID)	41.6333	-5.1833	http://www.geonames.org/6362224/mota-del-marques.html
06.0.052	ESR052	Romance	Madrigal de las Atlas	41.0902	-5.0030	Madrigal_de_las_Atlas	MADRIGAL DE LAS ALTAS TORRES (AVILA)	41.0833	-5.0000	http://www.geonames.org/3117728/madrigal-de-las-altas-torres.html
06.0.053	ESR053	Romance	Íscar	41.3610	-4.5328	Iscar	ISCAR (VALLADOLID)	41.3500	-4.5500	http://www.geonames.org/3120288/iscar.html
06.0.054	ESR054	Romance	Alba de Cerrato	41.8115	-4.3649	Alba_de_Cerrato	ALBA DE CERRATO (PALENCIA)	41.8000	-4.3833	http://www.geonames.org/3130708/alba-de-cerrato.html
06.0.055	ESR055	Romance	Valcavado de Roa	41.6874	-3.9933	Valcavado	VALCAVADO DE ROA (BURGOS)	41.7000	-3.9167	http://www.geonames.org/3107054/valcavado-de-roa.html
06.0.056	ESR056	Romance	Sepúlveda	41.2974	-3.7489	Sepúlveda	SEPULVEDA (SEGOVIA)	41.3000	-3.7500	http://www.geonames.org/3109139/sepulveda.html
06.0.057	ESR057	Romance	Montejo de la Sierra	41.0595	-3.5297	Montejo_de_la_Sierra	MONTEJO DE LA SIERRA (MADRID)	41.0667	-3.5333	http://www.geonames.org/3116345/montejo-de-la-sierra.html
06.0.058	ESR058	Romance	Castillejo de Robledo	41.5601	-3.4947	Castillejo_de_Robledo	CASTILLEJO DE ROBLEDO (SORIA)	41.5500	-3.5000	http://www.geonames.org/3125816/castillejo-de-robledo.html
06.0.059	ESR059	Romance	Almazán	41.4859	-2.5332	Almazán	ALMAZAN (SORIA)	41.4833	-2.5167	http://www.geonames.org/3130313/almazan.html
06.0.060	ESR060	Romance	Almaluez	41.2881	-2.2686	Almaluez	ALMALUEZ (SORIA)	41.2833	-2.2500	http://www.geonames.org/3130325/almaluez.html
06.0.061	ESR061	Romance	Borobia	41.6650	-1.8966	Borovia	BOROBIA (SORIA)	41.6667	-1.9000	http://www.geonames.org/3127790/borobia.html
06.0.062	ESR062	Romance	La Almunia de Doña Godina	41.4768	-1.3747	La_Almunia_de_Dona_Godina	LA ALMUNIA DE DONA GODINA (ZARAGOZA)	41.1333	-1.6500	http://www.geonames.org/3120012/la-almunia-de-dona-godina.html
06.0.063	ESR063	Romance	Ribaforada	41.9965	-1.5136	Ribaforada	RIBAFORADA (NAVARRA)	41.9833	-1.5500	http://www.geonames.org/3111845/ribaforada.html
06.0.064	ESR064	Romance	Zuera	41.8685	-0.7901	Zuera	ZUERA (ZARAGOZA)	41.8167	-0.6167	http://www.geonames.org/3104226/zuera.html
06.0.065	ESR065	Romance	Híjar	41.1732	-0.4491	Híjar	HIJAR (TERUEL)	41.1667	-0.4500	http://www.geonames.org/3120763/hijar.html
06.0.066	ESR066	Romance	Pallaruelo de Monegros	41.7051	-0.2086	Pallaruelo_de_Monegros	PALLARUELO DE MONEGROS (HUESCA)	41.7000	-0.2167	http://www.geonames.org/3114519/pallaruelo-de-monegros.html
06.0.067	ESR067	Romance	Pozán de Vero	42.0816	0.0329	Pozán_de_Vero	POZAN DE VERO (HUESCA)	41.9833	0.3167	http://www.geonames.org/3113021/pozan-de-vero.html
06.0.068	ESR068	Romance	Fraga	41.5218	0.3417	Fraga	FRAGA (HUESCA)	41.5333	0.3500	http://www.geonames.org/3122157/fraga.html
06.0.069	ESR069	Romance	Navasfrías	40.2972	-6.8210	Navasfrias	NAVASFRIAS (SALAMANCA)	40.3000	-6.8167	http://www.geonames.org/3115580/navasfrias.html
06.0.070	ESR070	Romance	Ahigal de los Aceiteros	40.8731	-6.7474	Ahigal_de_los_Aceiteros	AHIGAL DE LOS ACEITEROS (SALAMANCA)	40.8667	-6.7500	http://www.geonames.org/3130791/ahigal-de-los-aceiteros.html
06.0.071	ESR071	Romance	La Pesga	40.3251	-6.1748	La_Pesga	LA PESGA (CACERES)	40.3333	-6.1667	http://www.geonames.org/3119236/la-pesga.html
06.0.072	ESR072	Romance	Rollán	40.9621	-5.9185	Rollán	ROLLAN (SALAMANCA)	40.9667	-5.9167	http://www.geonames.org/3111407/rollan.html
06.0.073	ESR073	Romance	Pedraza de Alba	40.7548	-5.3763	Pedraza_de_Alba	PEDRAZA DE ALBA (SALAMANCA)	40.7500	-5.4000	http://www.geonames.org/3114131/pedraza-de-alba.html
06.0.074	ESR074	Romance	Las Ventas de San Julián	40.0086	-5.2939	Las_Ventas_de_San_Julián	LAS VENTAS DE SAN JULIAN (TOLEDO)	40.0000	-5.3000	http://www.geonames.org/2515206/las-ventas-de-san-julian.html
06.0.075	ESR075	Romance	Garganta del Villar	40.4502	-5.1038	Garganta_del_Villar	GARGANTA DEL VILLAR (AVILA)	40.4333	-5.1000	http://www.geonames.org/3121589/garganta-del-villar.html
06.0.076	ESR076	Romance	Laguna Rodrigo	40.9794	-4.4600	Laguna_Rodrigo	LAGUNA RODRIGO (SEGOVIA)	40.9667	-4.4667	http://www.geonames.org/3119627/laguna-rodrigo.html
06.0.077	ESR077	Romance	Navalperal de Pinares	40.5919	-4.4111	Navalperal_de_Pinares	NAVALPERAL DE PINARES (AVILA)	40.5833	-4.4167	http://www.geonames.org/3115634/navalperal-de-pinares.html
06.0.078	ESR078	Romance	Soto del Real	40.7528	-3.7910	Chozas_de_la_Sierra	CHOZAS DE LA SIERRA (MADRID)	40.7500	-3.7667	http://www.geonames.org/6359363/soto-del-real.html
06.0.079	ESR079	Romance	Madrid	40.4168	-3.7038	Madrid	MADRID (MADRID)	40.4167	-3.7167	http://www.geonames.org/3117735/madrid.html
06.0.080	ESR080	Romance	Escariche	40.4079	-3.0567	Escariche	ESCARICHE (GUADALAJARA)	40.4167	-3.0500	http://www.geonames.org/3123001/escariche.html
06.0.081	ESR081	Romance	Navalpotro	40.9280	-2.5975	Navalpotro	NAVALPOTRO (GUADALAJARA)	40.9167	-2.6000	http://www.geonames.org/3115632/navalpotro.html
06.0.082	ESR082	Romance	El Pozuelo	40.6203	-2.2769	El_Pozuelo	EL POZUELO (CUENCA)	40.6167	-2.2500	http://www.geonames.org/3123330/el-pozuelo.html
06.0.083	ESR083	Romance	Canete, Cuenca	40.0500	-1.6500	Canete	CANETE (CUENCA)	40.0500	-1.6500	http://www.geonames.org/3126582/canete.html
06.0.084	ESR084	Romance	Villar del Salz	40.6819	-1.4996	Villa_del_Saz	VILLAR DEL SALZ (TERUEL)	40.6833	-1.5000	http://www.geonames.org/3105038/villar-del-salz.html
06.0.085	ESR085	Romance	Arcos de Salinas	39.9936	-1.0428	Arcos_de_Salinas	ARCOS DE SALINAS (TERUEL)	40.0000	-1.0500	http://www.geonames.org/2521664/arcos-de-las-salinas.html
06.0.086	ESR086	Romance	Montalbán, Teruel	40.8327	-0.8002	Montalbán	MONTALBAN (TERUEL)	40.8333	-0.8000	http://www.geonames.org/3116441/montalban.html
06.0.087	ESR087	Romance	Alcalá de la Selva	40.3720	-0.7197	Alcalá_de_la_Selva	ALCALA DE LA SELVA (TERUEL)	40.3667	-0.7167	http://www.geonames.org/3130615/alcala-de-la-selva.html
06.0.088	ESR088	Romance	Mayorga	39.2614	-7.1301	Mayorga	MAYORGA (BADAJOZ)	39.2500	-7.0833	http://www.geonames.org/2518525/el-convento.html
06.0.089	ESR089	Romance	Ceclavín	39.8222	-6.7733	Ceclavín	CECLAVIN (CACERES)	39.8167	-6.7833	http://www.geonames.org/2519659/ceclavin.html
06.0.090	ESR090	Romance	Robledillo de Trujillo	39.2691	-5.9800	Robledillo_de_Trujillo	ROBLEDILLO DE TRUJILLO (CACERES)	39.2667	-5.9833	http://www.geonames.org/2511781/robledillo-de-trujillo.html
06.0.091	ESR091	Romance	Majadas	39.9423	-5.7464	Majadas	MAJADAS (CACERES)	39.9500	-5.7500	http://www.geonames.org/2514279/majadas.html
06.0.092	ESR092	Romance	Helechosa de los Montes	39.3120	-4.9078	Helechosa	HELECHOSA (BADAJOZ)	39.3167	-4.9000	http://www.geonames.org/2516801/helechosa.html
06.0.093	ESR093	Romance	San Pablo, Toledo	39.5402	-4.3317	San_Pablo	SAN PABLO (TOLEDO)	39.5500	-4.3167	http://www.geonames.org/2511271/san-pablo.html
06.0.094	ESR094	Romance	Ontígola	40.0097	-3.5724	Ontígola	ONTIGOLA (TOLEDO)	39.9667	-3.5667	http://www.geonames.org/2513104/ontigola.html
06.0.095	ESR095	Romance	Villafranca de los Caballeros	39.4263	-3.3600	Villafranca	VILLAFRANCA DE LOS CABALLEROS (TOLEDO)	39.4333	-3.3500	http://www.geonames.org/2509597/villafranca-de-los-caballeros.html
06.0.096	ESR096	Romance	Uclés	39.9800	-2.8633	Uclés	UCLES (CUENCA)	39.9667	-2.8667	http://www.geonames.org/2510106/ucles.html
06.0.097	ESR097	Romance	Las Mesas	39.3878	-2.7643	Les_Mesas	LAS MESAS (CUENCA)	39.4000	-2.7500	http://www.geonames.org/2515319/las-mesas.html
06.0.098	ESR098	Romance	Albacete	38.9943	-1.8585	Albacete	ALBACETE (ALBACETE)	39.0000	-1.8667	http://www.geonames.org/2522258/albacete.html
06.0.099	ESR099	Romance	Enguídanos	39.6736	-1.6063	Enguídanos	ENGUIDANOS (CUENCA)	39.6667	-1.6167	http://www.geonames.org/2518009/enguidanos.html
06.0.100	ESR100	Romance	Encinasola	38.1382	-6.8713	Encinasola	ENCINASOLA (HUELVA)	38.1500	-6.8833	http://www.geonames.org/2518020/encinasola.html
06.0.101	ESR101	Romance	Solana de los Barros	38.7228	-6.5396	Solana_de_los_Barros	SOLANA DE LOS BARROS (BADAJOZ)	38.7333	-6.5500	http://www.geonames.org/2510839/solana-de-los-barros.html
06.0.102	ESR102	Romance	Monesterio	38.0890	-6.2727	Monesterio	MONESTERIO (BADAJOZ)	38.0833	-6.2667	http://www.geonames.org/2513692/monesterio.html
06.0.103	ESR103	Romance	Higuera de la Serena	38.6453	-5.7412	Higuera_de_la_Serena	HIGUERA DE LA SERENA (BADAJOZ)	38.6500	-5.7500	http://www.geonames.org/2516731/higuera-de-la-serena.html
06.0.104	ESR104	Romance	Villanueva Del Duque	38.3931	-4.9987	Villanueva_Del_Duque	VILLANUEVA DEL DUQUE (CORDOBA)	38.3333	-5.0000	http://www.geonames.org/2509551/villanueva-del-duque.html
06.0.105	ESR105	Romance	Almadén	38.7745	-4.8326	Almadén	ALMADEN (CIUDAD REAL)	38.7833	-4.8333	http://www.geonames.org/2521938/almaden.html
06.0.106	ESR106	Romance	Ciudad Real	38.9848	-3.9274	Ciudad_Real	CIUDAD REAL (CIUDAD REAL)	38.9833	-3.9167	http://www.geonames.org/2519402/ciudad-real.html
06.0.107	ESR107	Romance	Aldeaquemada	38.4116	-3.3729	Aldeaquemada	ALDEAQUEMADA (JAEN)	38.4167	-3.3667	http://www.geonames.org/2522065/aldeaquemada.html
06.0.108	ESR108	Romance	Villanueva de la Fuente	38.6928	-2.6959	Villanueva_de_la_Fuente	VILLANUEVA DE LA FUENTE (CIUDAD REAL)	38.7000	-2.7000	http://www.geonames.org/2509560/villanueva-de-la-fuente.html
06.0.109	ESR109	Romance	Nerpio	38.1478	-2.2988	Nerpio	NERPIO (ALBACETE)	38.1500	-2.3000	http://www.geonames.org/2513238/nerpio.html
06.0.110	ESR110	Romance	Ricote	38.1537	-1.3656	Ricote	RICOTE (MURCIA)	38.1667	-1.3500	http://www.geonames.org/2511869/ricote.html
06.0.111	ESR111	Romance	Ayamonte	37.2141	-7.4043	Ayamonte	AYAMONTE (HUELVA)	37.2167	-7.4000	http://www.geonames.org/2521456/ayamonte.html
06.0.112	ESR112	Romance	Paterna del Campo	37.4193	-6.4021	Paterna_del_Campo	PATERNA DEL CAMPO (HUELVA)	37.4167	-6.4000	http://www.geonames.org/2512860/paterna-del-campo.html
06.0.113	ESR113	Romance	Navas de la Concepción	37.9325	-5.4660	Navas_de_la_Concepción	NAVAS DE LA CONCEPCION (SEVILLA)	37.9333	-5.4667	http://www.geonames.org/2515305/las-navas-de-la-concepcion.html
06.0.114	ESR114	Romance	Casariche	37.2938	-4.7627	Casariche	CASARICHE (SEVILLA)	37.3000	-4.7500	http://www.geonames.org/2519979/casariche.html
06.0.115	ESR115	Romance	Baena	37.6174	-4.3245	Baena	BAENA (CORDOBA)	37.6167	-4.3333	http://www.geonames.org/2521415/baena.html
06.0.116	ESR116	Romance	Arjonilla	37.9745	-4.1066	Arjonilla	ARJONILLA (JAEN)	37.9833	-4.1000	http://www.geonames.org/2521593/arjonilla.html
06.0.117	ESR117	Romance	Iznalloz	37.3926	-3.5199	Iználloz	IZNALLOZ (GRANADA)	37.4000	-3.5000	http://www.geonames.org/2516414/iznalloz.html
06.0.118	ESR118	Romance	Larva	37.7594	-3.2024	Larva	LARVA (JAEN)	37.7500	-3.2167	http://www.geonames.org/2515543/larva.html
06.0.119	ESR119	Romance	Alcóntar	37.3360	-2.5975	Alcóntar	ALCONTAR (ALMERIA)	37.3333	-2.5833	http://www.geonames.org/2522108/alcontar.html
06.0.120	ESR120	Romance	Cúllar Baza	37.5828	-2.5706	Cúllar_Baza	GULLAR (DE) BAZA (GRANADA)	37.5833	-2.5667	http://www.geonames.org/2518951/cullar-de-baza.html
06.0.121	ESR121	Romance	Carboneras	36.9968	-1.8947	Carboneros	CARBONERAS (ALMERIA)	37.0000	-1.8833	http://www.geonames.org/2520163/carboneras.html
06.0.122	ESR122	Romance	Zarcilla de Ramos	37.8441	-1.8763	Zarcillo_de_Ramos	ZARCILLA DE RAMOS (MURCIA)	37.8333	-1.8833	http://www.geonames.org/2509342/zarcilla-de-ramos.html
06.0.123	ESR123	Romance	Aguilas	37.4118	-1.5828	Aguilas	AGUILAS (MURCIA)	37.4167	-1.5833	http://www.geonames.org/2522333/aguilas.html
06.0.124	ESR124	Romance	Jerez de la Frontera	36.6850	-6.1261	Jerez_de_la_Frontera	JEREZ DE LA FRONTERA (CADIZ)	36.6833	-6.1333	http://www.geonames.org/2516326/jerez-de-la-frontera.html
06.0.125	ESR125	Romance	Las Cabezas de San Juan	36.9803	-5.9383	Cabezas_de_Can_Juan	CABEZAS DE SAN JUAN (SEVILLA)	36.9833	-5.9333	http://www.geonames.org/2515493/las-cabezas-de-san-juan.html
06.0.126	ESR126	Romance	Algeciras	36.1318	-5.4486	Algeciras	ALGECIRAS (CADIZ)	36.1333	-5.4500	http://www.geonames.org/2522013/algeciras.html
06.0.127	ESR127	Romance	Setenil	36.8624	-5.1764	Setenil	SETENIL (CADIZ)	36.8667	-5.1667	http://www.geonames.org/2510915/setenil-de-las-bodegas.html
06.0.128	ESR128	Romance	Estepona	36.4268	-5.1467	Espona	ESTEPONA (MALAGA)	36.4333	-5.1500	http://www.geonames.org/2517816/estepona.html
06.0.129	ESR129	Romance	Riogordo	36.9164	-4.2930	Ríogordo	RIOGORDO (MALAGA)	36.9167	-4.3000	http://www.geonames.org/2511825/riogordo.html
06.0.130	ESR130	Romance	Albunol	36.7922	-3.2024	Albunol	ALBUNOL (GRANADA)	36.8000	-3.1833	http://www.geonames.org/2522187/albunol.html
06.2.201	ESR201	Romance	Taüll	42.5195	0.8486	Taüll	TAUELL (LERIDA)	42.5167	0.8500	http://www.geonames.org/3108406/tauell.html
06.2.202	ESR202	Romance	Peramola	42.0619	1.2728	Peramola	PERAMOLA (LERIDA)	42.0667	1.2667	http://www.geonames.org/3113792/peramola.html
06.2.203	ESR203	Romance	Sant Privat d'en Bas	42.1502	2.4185	Sant_Privat_d'en_Bas	SANT PRIVAT D'EN BAS (GERONE)	42.1333	2.4167	http://www.geonames.org/3110108/sant-privat-d-en-bas.html
06.2.204	ESR204	Romance	Llançà	42.3654	3.1594	Llançà	LLANCA (GERONE)	42.3667	3.1500	http://www.geonames.org/6534076/llanca.html
06.2.205	ESR205	Romance	Riba-roja d'Ebre	41.2500	0.4833	Riba-roja	RIBA-ROJA (TARRAGONE)	41.2500	0.4833	http://www.geonames.org/3111837/riba-roja-d-ebre.html
06.2.206	ESR206	Romance	Almenar	41.7971	0.5681	Almenar	ALMENAR (LERIDA)	41.7833	0.5667	http://www.geonames.org/3130306/almenar.html
06.2.207	ESR207	Romance	La Torre de Fontaubella	41.1246	0.8648	La_Torre_de_Fontaubella	LA TORRE DE FONTAUBELLA (TARRAGONE)	41.1167	0.8667	http://www.geonames.org/6361393/la-torre-de-fontaubella.html
06.2.208	ESR208	Romance	Arbeca	41.5426	0.9235	Arbeca	ARBECA (LERIDA)	41.5333	0.9333	http://www.geonames.org/3129809/arbeca.html
06.2.209	ESR209	Romance	Freixenet de Segarra	41.6611	1.3956	Freixenet_de_Segarra	FREIXENET DE SEGARRA (LERIDA)	41.6667	1.4000	http://www.geonames.org/6358925/sant-guim-de-freixenet.html
06.2.210	ESR210	Romance	Sant Jaume Sesoliveres	41.4711	1.7508	Sant_Jaume_Sesoliveres	SANT JAUME SESOLIVERES (COMM. DE PIERA)	41.4167	1.5000	http://www.geonames.org/3109552/sant-jaume-sas-oliveras.html
06.2.211	ESR211	Romance	Moià	41.8099	2.0972	Moià	MOIA (BARCELONA)	41.8000	2.1000	http://www.geonames.org/6356167/moia.html
06.2.212	ESR212	Romance	Barcelona	41.3851	2.1734	Barcelona	BARCELONA (BARCELONA)	41.3833	2.1833	http://www.geonames.org/6544106/ciutat-vella.html
06.2.213	ESR213	Romance	Llagostera	41.8266	2.8930	Llagostera	LLAGOSTERA (GERONE)	41.8333	2.9000	http://www.geonames.org/3118340/llagostera.html
06.2.214	ESR214	Romance	Sorita	40.7288	-0.1665	Sorita	SORITA (CASTELLO)	40.6667	-0.1667	http://www.geonames.org/3104261/zorita-del-maestrazgo.html
06.2.215	ESR215	Romance	Albocàsser	40.3567	0.0251	Albocàsser	ALBOCASSER (CASTELLO)	40.3500	0.0167	http://www.geonames.org/3130637/albocasser.html
06.2.216	ESR216	Romance	Amposta	40.7068	0.5802	Amposta	AMPOSTA (TARAGONE)	40.7167	0.5667	http://www.geonames.org/6361257/amposta.html
06.2.217	ESR217	Romance	Alzira	39.1512	-0.4334	Alzira	ALZIRA (VALENCIA)	39.1333	-0.4667	http://www.geonames.org/2522129/alzira.html
06.2.218	ESR218	Romance	València	39.4699	-0.3763	València	VALENCIA (VALENCIA)	39.4833	-0.4000	http://www.geonames.org/2509954/valencia.html
06.2.219	ESR219	Romance	Castelló de la Plana	39.9854	-0.0373	Castelló_de_la_Plana	CASTELLO DE LA PLANA (CASTELLO)	39.9667	-0.0500	http://www.geonames.org/2519752/castello-de-la-plana.html
06.2.220	ESR220	Romance	Novelda	38.3841	-0.7668	Novelda	NOVELDA (ALACANT)	38.4167	-0.7167	http://www.geonames.org/2513195/novelda.html
06.2.221	ESR221	Romance	Ontinyent	38.8221	-0.6064	Ontinyent	ONTINYENT (VALENCIA)	38.8333	-0.6333	http://www.geonames.org/2521374/balneario.html
06.2.222	ESR222	Romance	Altea	38.6029	-0.0451	Altea	ALTEA (ALACANT)	38.5500	-0.0833	http://www.geonames.org/2515014/llano-del-castillo.html
06.2.223	ESR223	Romance	Santanyí	39.3539	3.1303	Santanyí	SANTANYI (MAJORQUE)	39.3500	3.1333	http://www.geonames.org/2511106/santanyi.html
06.2.224	ESR224	Romance	Ciutadella	39.9991	3.8389	Ciutadella	CIUTADELLA (MINORQUE)	40.0000	3.8333	http://www.geonames.org/3124967/ciutadella.html
06.2.225	ESR225	Romance	Eivissa	38.9095	1.4335	Eivissa	EIVISSA (IBIZA)	38.8667	1.4167	http://www.geonames.org/6695972/es-cana.html
07.0.001	FIF001	Finnic	Rovaniemi	66.4970	25.7250	Rovaniemi	ROVANIEMI	66.5000	25.5000	http://www.geonames.org/638936/rovaniemi.html
07.0.002	FIF002	Finnic	Himanka	64.0583	23.6500	Himanka	HIMANKA	64.0833	23.6667	http://www.geonames.org/657838/himanka.html
07.0.003	FIF003	Finnic	Nivala	63.9250	24.9750	Nivala	NIVALA	64.0000	25.0000	http://www.geonames.org/644499/nivala.html
07.0.004	FIF004	Finnic	Utajärvi	64.7614	26.4164	Utajärvi	UTAJAERVI	64.7500	26.5000	http://www.geonames.org/633295/utajaervi.html
07.0.005	FIF005	Finnic	Ristijärvi	64.5051	28.2071	Ristijärvi	RISTIJAERVI	64.5000	28.5000	http://www.geonames.org/639234/ristijaervi.html
07.0.006	FIF006	Finnic	Nilsiä	63.2038	28.0865	Nilsiä	NILSIAE	63.3333	28.0000	http://www.geonames.org/644632/nilsiae.html
07.0.007	FIF007	Finnic	Nurmo	62.8278	22.9083	Nurmo	NURMO	62.6667	23.0833	http://www.geonames.org/644159/nurmo.html
07.0.008	FIF008	Finnic	Konginkangas	62.7799	25.8045	Konginkangas	KONGINKANGAS	62.6667	25.8333	http://www.geonames.org/651713/konginkangas.html
07.0.009	FIF009	Finnic	Kangasniemi	61.9881	26.6419	Kangasniemi	KANGASNIEMI	62.0000	26.6667	http://www.geonames.org/654405/kangasniemi.html
07.0.010	FIF010	Finnic	Kiihtelysvaara	62.4931	30.2512	Kiihtelysvaara	KIIHTELYSVAARA	62.5000	30.3333	http://www.geonames.org/652891/kiihtelysvaara.html
07.0.011	FIF011	Finnic	Pyhäranta	60.9502	21.4446	Pyhäranta	PYHAERANTA	61.0000	21.3333	http://www.geonames.org/852790/leivonmaeki.html
07.0.012	FIF012	Finnic	Vampula	61.0220	22.7039	Vampula	VAMPULA	61.0833	22.6667	http://www.geonames.org/632539/vampula.html
07.0.013	FIF013	Finnic	Hämeenkyrö	61.6383	23.1963	Hämeenkyrö	HAEMEENKYROE	61.6667	23.4167	http://www.geonames.org/659184/haemeenkyroe.html
07.0.014	FIF014	Finnic	Hattula	61.0500	24.3667	Hattula	HATTULA	60.9167	24.1667	http://www.geonames.org/642622/parola.html
07.0.015	FIF015	Finnic	Jämsä	61.8638	25.1896	Jämsä	JAEMSAE	61.9167	25.2500	http://www.geonames.org/656083/jaemsae.html
07.0.016	FIF016	Finnic	Hollola	60.9941	25.5057	Hollola	HOLLODA	61.0000	25.5000	http://www.geonames.org/657531/hollola.html
07.0.017	FIF017	Finnic	Iitti	60.8911	26.3361	Iitti	IITTI JAALA	61.0833	26.1667	http://www.geonames.org/653492/kausala.html
07.0.018	FIF018	Finnic	Juva	61.8947	27.8618	Juva	JUVA	61.7500	27.7500	http://www.geonames.org/655253/juva.html
07.0.019	FIF019	Finnic	Pöytyä	60.7198	22.6037	Pöytyä	POEYTYAE	60.7500	22.6667	http://www.geonames.org/639417/riihikoski.html
07.0.020	FIF020	Finnic	Sauvo	60.3435	22.6954	Sauvo	SAUVO	60.3333	22.7500	http://www.geonames.org/637400/sauvo.html
07.0.021	FIF021	Finnic	Perniö	60.2036	23.1253	Perniö	PERNIOE	60.2500	23.1667	http://www.geonames.org/642113/pernioe.html
07.0.022	FIF022	Finnic	Vihti	60.4167	24.3167	Vihti	VIHTI	60.4167	24.3333	http://www.geonames.org/635869/suksela.html
07.0.023	FIF023	Finnic	Kymi	60.5389	26.9064	Kymi	KYMI	60.5000	26.9167	http://www.geonames.org/654137/karhula.html
07.0.101	FIF101	Finnic	Kittilä	67.6500	24.9083	Kittilä	KITTILAE	67.7500	25.0000	http://www.geonames.org/652590/kittilae.html
07.0.102	FIF102	Finnic	Karunki	66.0500	23.9500	Karunki	KARUNKI	66.0833	24.0000	http://www.geonames.org/653831/karunki.html
07.0.103	FIF103	Finnic	Ylitornio	66.3167	23.6667	Ylitornio	YLITORNIO	66.4167	24.3333	http://www.geonames.org/630779/ylitornio.html
07.0.104	FIF104	Finnic	Tervola	66.0805	24.8109	Tervola	TERVOLA	66.0833	24.8333	http://www.geonames.org/634592/tervola.html
07.0.105	FIF105	Finnic	Kemijärvi	66.7136	27.4292	Kemijärvi	KEMIJAERVI	66.6667	27.4167	http://www.geonames.org/655251/juvaelae.html
07.0.106	FIF106	Finnic	Kuusamo	65.9646	29.1888	Kuusamo	KUUSAMO	66.0000	29.2500	http://www.geonames.org/649924/kuusamo.html
07.0.107	FIF107	Finnic	Hailuoto	65.0141	24.7303	Hailuoto	HAILUOTO	65.0000	24.6667	http://www.geonames.org/843800/kittilaennurkka.html
07.0.108	FIF108	Finnic	Ii	65.3174	25.3731	Ii	II	65.4167	25.5833	http://www.geonames.org/656851/ii.html
07.0.109	FIF109	Finnic	Pudasjärvi	65.3619	26.9859	Pudasjärvi	PUDASJAERVI	65.4167	27.0000	http://www.geonames.org/645643/mursu.html
07.0.110	FIF110	Finnic	Suomussalmi	64.8841	28.9117	Suomussalmi	SUOMUSSALMI	65.0833	29.1667	http://www.geonames.org/661237/aemmaensaari.html
07.0.111	FIF111	Finnic	Kalajoki	64.2667	23.9500	Kalajoki	KALAJOKI	64.3333	24.0000	http://www.geonames.org/648312/lepistoenperae.html
07.0.112	FIF112	Finnic	Saloinen	64.6551	24.4710	Saloinen	SALOINEN	64.5833	24.5000	http://www.geonames.org/637936/saloinen.html
07.0.113	FIF113	Finnic	Vihanti	64.4861	24.9918	Vihanti	VIHANTI	64.4167	25.0833	http://www.geonames.org/631758/vihanti.html
07.0.114	FIF114	Finnic	Liminka	64.8083	25.4167	Liminka	LIMINKA	64.7500	25.4167	http://www.geonames.org/647930/liminka.html
07.0.115	FIF115	Finnic	Rantsila	64.5000	25.6500	Rantsila	RANTSILA	64.4167	25.6667	http://www.geonames.org/639895/rantsila.html
07.0.116	FIF116	Finnic	Muhos	64.8075	25.9943	Muhos	MUHOS	64.8333	26.0000	http://www.geonames.org/645765/muhos.html
07.0.117	FIF117	Finnic	Piippola	64.1775	25.9659	Piippola	PIIPPOLA	64.1667	26.0000	http://www.geonames.org/641612/piippola.html
07.0.118	FIF118	Finnic	Puolanka	64.8681	27.6708	Puolanka	PUOLANKA	64.8333	27.7500	http://www.geonames.org/640658/puolanka.html
07.0.119	FIF119	Finnic	Sotkamo	64.1307	28.3905	Sotkamo	SOTKAMO	64.0833	28.4167	http://www.geonames.org/638553/rytilahti.html
07.0.120	FIF120	Finnic	Kuhmo	64.1287	29.5203	Kuhmo	KUHMO	64.2500	29.6667	http://www.geonames.org/650705/kuhmo.html
07.0.121	FIF121	Finnic	Lappajärvi	63.2167	23.6333	Lappajärvi	LAPPAJAERVI	63.1667	23.5833	http://www.geonames.org/652670/kirkonkylae.html
07.0.122	FIF122	Finnic	Kaustinen	63.5481	23.6965	Kaustinen	KAUSTINEN	63.5833	23.7500	http://www.geonames.org/642213/penttilae.html
07.0.123	FIF123	Finnic	Perho	63.2151	24.4158	Perho	PERHO	63.2500	24.2500	http://www.geonames.org/642139/perho.html
07.0.124	FIF124	Finnic	Toholampi	63.7750	24.2500	Toholampi	TOHOLAMPI	63.7500	24.3333	http://www.geonames.org/634324/toholampi.html
07.0.125	FIF125	Finnic	Viitasaari	63.0734	25.8597	Viitasaari	VIITASAARI	63.1667	25.7500	http://www.geonames.org/631560/viitasaari.html
07.0.126	FIF126	Finnic	Pyhäjärvi	63.6812	25.9815	Pyhäjärvi_Ol.	PYHAEJAERVI	63.6667	25.8333	http://www.geonames.org/640441/pyhaejaervi.html
07.0.127	FIF127	Finnic	Kiuruvesi	63.6538	26.6211	Kiuruvesi	KIURUVESI	63.6667	26.5833	http://www.geonames.org/652559/kiuruvesi.html
07.0.128	FIF128	Finnic	Pielavesi	63.2333	26.7583	Pielavesi	PIELAVESI	63.2500	26.5833	http://www.geonames.org/641861/pielavesi.html
07.0.129	FIF129	Finnic	Iisalmi	63.5578	27.1917	Iisalmi	IISALMI	63.5833	27.1667	http://www.geonames.org/656820/iisalmi.html
07.0.130	FIF130	Finnic	Maaninka	63.1551	27.2994	Maaninka	MAANINKA	63.1667	27.1667	http://www.geonames.org/647202/maaninka.html
07.0.131	FIF131	Finnic	Sonkajärvi	63.6716	27.5221	Sonkajärvi	SONKAJAERVI	63.7500	27.6667	http://www.geonames.org/636301/sonkajaervi.html
07.0.132	FIF132	Finnic	Kaavi	62.9750	28.4833	Kaavi	KAAVI	63.0000	28.5833	http://www.geonames.org/655069/kaavi.html
07.0.133	FIF133	Finnic	Nurmes	63.5450	29.1333	Nurmes	NURMES	63.5833	29.1667	http://www.geonames.org/644187/nurmes.html
07.0.134	FIF134	Finnic	Juuka	63.2433	29.2546	Juuka	JUUKA	63.2500	29.2500	http://www.geonames.org/655312/juuka.html
07.0.135	FIF135	Finnic	Pielisjärvi	63.3105	30.0321	Pielisjärvi	PIELISJAERVI	63.3333	30.1667	http://www.geonames.org/641857/pielisjaervi.html
07.0.136	FIF136	Finnic	Teuva	62.4795	21.7391	Teuva	TEUVA	62.5000	21.8333	http://www.geonames.org/634561/teuva.html
07.0.137	FIF137	Finnic	Laihia	62.9761	22.0115	Laihia	LAIHIA	62.9167	22.0000	http://www.geonames.org/649348/laihia.html
07.0.138	FIF138	Finnic	Kauhajoki	62.4236	22.1759	Kauhajoki	KAUHAJOKI	62.3333	22.3333	http://www.geonames.org/653627/kauhajoki.html
07.0.139	FIF139	Finnic	Ilmajoki	62.7333	22.5833	Ilmajoki	ILMAJOKI	62.7500	22.3333	http://www.geonames.org/656739/ilmajoki.html
07.0.140	FIF140	Finnic	Karvia	62.1333	22.5583	Karvia	KARVIA	62.1667	22.6667	http://www.geonames.org/653813/karvia.html
07.0.141	FIF141	Finnic	Jalasjärvi	62.4917	22.7667	Jalasjärvi	JALASJAERVI	62.4167	22.8333	http://www.geonames.org/656117/jalasjaervi.html
07.0.142	FIF142	Finnic	Lapua	62.9689	23.0071	Lapua	LAPUA	63.0000	23.0833	http://www.geonames.org/648855/lapua.html
07.0.143	FIF143	Finnic	Alavus	62.5917	23.6167	Alavus	ALAVUS	62.5000	23.5000	http://www.geonames.org/661352/alavus.html
07.0.144	FIF144	Finnic	Virrat	62.2409	23.7702	Virrat	VIRRAT	62.2500	23.6667	http://www.geonames.org/631376/virrat.html
07.0.145	FIF145	Finnic	Ruovesi	61.9833	24.0667	Ruovesi	RUOVESI	62.0000	24.0000	http://www.geonames.org/638691/ruovesi.html
07.0.146	FIF146	Finnic	Ähtäri	62.5502	24.0694	Ähtäri	AEHTAERI	62.5833	24.2500	http://www.geonames.org/661896/aehtaeri.html
07.0.147	FIF147	Finnic	Keuruu	62.2560	24.7079	Keuruu	KEURUU	62.2500	24.6667	http://www.geonames.org/652977/keuruu.html
07.0.148	FIF148	Finnic	Karstula	62.8778	24.8009	Karstula	KARSTULA	62.9167	24.7500	http://www.geonames.org/653852/karstula.html
07.0.149	FIF149	Finnic	Saarijärvi	62.7067	25.2554	Saarijärvi	SAARIJAERVI	62.5833	25.2500	http://www.geonames.org/638321/saarijaervi.html
07.0.150	FIF150	Finnic	Jyväskylä	62.2447	25.7472	Jyväskylä	JYVAESKYLAE	62.2500	25.5833	http://www.geonames.org/655194/jyvaeskylae.html
07.0.151	FIF151	Finnic	Laukaa	62.4123	25.9496	Laukaa	LAUKAA	62.3333	26.0000	http://www.geonames.org/648738/laukaa.html
07.0.152	FIF152	Finnic	Hankasalmi	62.3833	26.4333	Hankasalmi	HANKASALMI	62.3333	26.5000	http://www.geonames.org/659024/hankasalmi.html
07.0.153	FIF153	Finnic	Rautalampi	62.6243	26.8277	Rautalampi	RAUTALAMPI	62.6667	26.6667	http://www.geonames.org/639709/rautalampi.html
07.0.154	FIF154	Finnic	Karttula	62.8967	26.9667	Karttula	KARTTULA	62.8333	27.1667	http://www.geonames.org/653841/karttula.html
07.0.155	FIF155	Finnic	Suonenjoki	62.6261	27.1221	Suonenjoki	SUONENJOKI	62.5000	27.2500	http://www.geonames.org/635692/suonenjoki.html
07.0.156	FIF156	Finnic	Kuopio	62.8925	27.6783	Kuopio	KUOPIO	62.8333	27.7500	http://www.geonames.org/650224/kuopio.html
07.0.157	FIF157	Finnic	Joroinen	62.1789	27.8299	Joroinen	JOROINEN	62.1667	27.8333	http://www.geonames.org/655626/joroinen.html
07.0.158	FIF158	Finnic	Rantasalmi	62.0667	28.3000	Rantasalmi	RANTASALMI	62.0000	28.3333	http://www.geonames.org/639906/rantasalmi.html
07.0.159	FIF159	Finnic	Heinävesi	62.4228	28.6318	Heinävesi	HEINAEVESI	62.7500	28.6667	http://www.geonames.org/652046/koivumaeki.html
07.0.160	FIF160	Finnic	Enonkoski	62.0893	28.9161	Enonkoski	ENONKOSKI	62.0833	29.0000	http://www.geonames.org/660235/enonkoski.html
07.0.161	FIF161	Finnic	Polvijärvi	62.8550	29.3667	Polvijärvi	POLVIJAERVI	62.9167	29.3333	http://www.geonames.org/641055/polvijaervi.html
07.0.162	FIF162	Finnic	Liperi	62.5291	29.3854	Liperi	LIPERI	62.5000	29.4167	http://www.geonames.org/632240/vaskola.html
07.0.163	FIF163	Finnic	Kontiolahti	62.7643	29.8474	Kontiolahti	KONTIOLAHTI	62.7500	29.8333	http://www.geonames.org/651659/kontiolahti.html
07.0.164	FIF164	Finnic	Kitee	62.0984	30.1380	Kitee	KITEE	62.0833	30.0833	http://www.geonames.org/652615/kitee.html
07.0.165	FIF165	Finnic	Eno	62.7988	30.1551	Eno	ENO	62.8333	30.3333	http://www.geonames.org/660242/eno.html
07.0.166	FIF166	Finnic	Ilomantsi	62.6679	30.9395	Ilomantsi	ILOMANTSI	62.8333	31.0000	http://www.geonames.org/656709/ilomantsi.html
07.0.167	FIF167	Finnic	Merikarvia	61.8583	21.5004	Merikarvia	MERIKARVIA	61.8333	21.5833	http://www.geonames.org/646192/merikarvia.html
07.0.168	FIF168	Finnic	Pori	61.4852	21.7974	Pori	PORI	61.5000	21.7500	http://www.geonames.org/7647303/aittaluoto.html
07.0.169	FIF169	Finnic	Eurajoki	61.2024	21.7340	Eurajoki	EURAJOKI	61.2500	21.7500	http://www.geonames.org/660073/eurajoki.html
07.0.170	FIF170	Finnic	Pomarkku	61.6935	22.0085	Pomarkku	POMARKKU	61.6667	22.0000	http://www.geonames.org/641044/pomarkku.html
07.0.172	FIF172	Finnic	Hinnerjoki	60.9962	21.9919	Hinnerjoki	HINNERJOKI	61.0000	22.0000	http://www.geonames.org/657820/hinnerjoki.html
07.0.173	FIF173	Finnic	Kokemäki	61.2583	22.3539	Kokemäki	KOKEMAEKI	61.2500	22.2500	http://www.geonames.org/651980/kokemaeki.html
07.0.174	FIF174	Finnic	Kankaanpää	61.8000	22.4000	Kankaanpää	KANKAANPAEAE	61.8333	22.4167	http://www.geonames.org/654363/kankaanpaeae.html
07.0.175	FIF175	Finnic	Lavia	61.5966	22.5857	Lavia	LAVIA	61.5833	22.4167	http://www.geonames.org/648613/lavia.html
07.0.177	FIF177	Finnic	Mouhijärvi	61.5134	23.0087	Mouhijärvi	MOUHIJAERVI	61.5000	22.8333	http://www.geonames.org/645800/mouhijaervi.html
07.0.178	FIF178	Finnic	Tyrvää	61.3536	22.9412	Tyrvää	TYRVAEAE	61.2500	23.0000	http://www.geonames.org/633537/tyrvaeae.html
07.0.179	FIF179	Finnic	Ikaalinen	61.7710	23.0587	Ikaalinen	IKAALINEN	61.9167	23.0833	http://www.geonames.org/656789/ikaalinen.html
07.0.180	FIF180	Finnic	Urjala	61.0803	23.5486	Urjala	URJALA	61.0833	23.5000	http://www.geonames.org/648733/laukeela.html
07.0.181	FIF181	Finnic	Lempäälä	61.3141	23.7524	Lempäälä	LEMPAEAELAE	61.4167	23.7500	http://www.geonames.org/648366/lempaeaelae.html
07.0.182	FIF182	Finnic	Teisko	61.6735	23.8479	Teisko	TEISKO	61.7500	23.9167	http://www.geonames.org/634760/teisko.html
07.0.183	FIF183	Finnic	Kangasala	61.4637	24.0718	Kangasala	KANGASALA	61.5000	24.1667	http://www.geonames.org/654440/kangasala.html
07.0.184	FIF184	Finnic	Sääksmäki	61.2005	24.0711	Sääksmäki	SAEAEKSMAEKI	61.1667	24.0833	http://www.geonames.org/638495/saeaeksmaeki.html
07.0.185	FIF185	Finnic	Luopioinen	61.3649	24.6566	Luopioinen	LUOPIOINEN	61.3333	24.6667	http://www.geonames.org/647383/luopioinen.html
07.0.186	FIF186	Finnic	Längelmäki	61.7284	24.8003	Längelmäki	LAENGELMAEKI	61.7500	24.7500	http://www.geonames.org/649031/laenkipohja.html
07.0.187	FIF187	Finnic	Lammi	61.0775	25.0110	Lammi	LAMMI	61.0833	25.0000	http://www.geonames.org/649223/lammi.html
07.0.188	FIF188	Finnic	Padasjoki	61.3509	25.2781	Padasjoki	PADASJOKI	61.4167	25.3333	http://www.geonames.org/643260/padasjoki.html
07.0.189	FIF189	Finnic	Asikkala	61.1721	25.5471	Asikkala	ASIKKALA	61.2500	25.8333	http://www.geonames.org/633099/vaeaeksy.html
07.0.190	FIF190	Finnic	Sysmä	61.5000	25.6833	Sysmä	SYSMAE	61.5000	25.7500	http://www.geonames.org/635336/sysmae.html
07.0.191	FIF191	Finnic	Joutsa	61.7429	26.1137	Joutsa	JOUTSA	61.7500	26.2500	http://www.geonames.org/655581/joutsa.html
07.0.192	FIF192	Finnic	Mäntyharju	61.4176	26.8805	Mäntyharju	MAENTYHARJU	61.3333	26.7500	http://www.geonames.org/646699/maentyharju.html
07.0.193	FIF193	Finnic	Valkeala	60.9389	26.7972	Valkeala	VALKEALA	61.0833	27.0000	http://www.geonames.org/632669/valkeala.html
07.0.194	FIF194	Finnic	Mikkeli	61.6833	27.2667	Mikkeli	MIKKELI	61.7500	27.2500	http://www.geonames.org/646005/mikkeli.html
07.0.195	FIF195	Finnic	Ristiina	61.5065	27.2578	Ristiina	RISTIINA	61.5000	27.4167	http://www.geonames.org/639248/ristiina.html
07.0.196	FIF196	Finnic	Lemi	61.0617	27.8050	Lemi	LEMI	61.0833	27.9167	http://www.geonames.org/648387/lemi.html
07.0.197	FIF197	Finnic	Puumala	61.5239	28.1778	Puumala	PUUMALA	61.5000	28.1667	http://www.geonames.org/638590/puumala.html
07.0.198	FIF198	Finnic	Ruokolahti	61.2863	28.8275	Ruokolahti	RUOKOLAHTI	61.3333	28.7500	http://www.geonames.org/638803/ruokolahti.html
07.0.199	FIF199	Finnic	Sääminki	61.8667	28.8333	Sääminki	SAEAEMINKI	61.6667	28.9167	http://www.geonames.org/638490/saeaeminki.html
07.0.200	FIF200	Finnic	Parikkala	61.5500	29.5000	Parikkala	PARIKKALA	61.5833	29.3333	http://www.geonames.org/642666/parikkala.html
07.0.201	FIF201	Finnic	Kalanti	60.8193	21.5600	Kalanti	KALANTI	60.8333	21.5833	http://www.geonames.org/654827/kalanti.html
07.0.202	FIF202	Finnic	Kustavi	60.5467	21.3583	Kustavi	KUSTAVI	60.5000	21.4167	http://www.geonames.org/649998/kustavi.html
07.0.204	FIF204	Finnic	Rymättylä	60.3735	21.9470	Rymättylä	RYMAETTYLAE	60.4167	21.9167	http://www.geonames.org/638582/rymaettylae.html
07.0.205	FIF205	Finnic	Mynämäki	60.6833	21.9833	Mynämäki	MYNAEMAEKI	60.6667	21.9167	http://www.geonames.org/645243/mynaemaeki.html
07.0.207	FIF207	Finnic	Yläne	60.8792	22.4111	Yläne	YLAENE	60.8333	22.3333	http://www.geonames.org/630998/ylaene.html
07.0.209	FIF209	Finnic	Lieto	60.5033	22.4593	Lieto	LIETO	60.5000	22.4167	http://www.geonames.org/854900/karvala.html
07.0.212	FIF212	Finnic	Loimaa	60.8500	23.0583	Loimaa	LOIMAA	60.9167	23.0833	http://www.geonames.org/647731/loimaa.html
07.0.213	FIF213	Finnic	Pertteli	60.4504	23.2411	Pertteli	PERTTELI	60.5000	23.3333	http://www.geonames.org/642093/pertteli.html
07.0.214	FIF214	Finnic	Somero	60.6285	23.5145	Somero	SOMERO	60.7500	23.2500	http://www.geonames.org/655812/joensuu.html
07.0.215	FIF215	Finnic	Karjalohja	60.2402	23.7177	Karjalohja	KARJALOHJA	60.2500	23.7500	http://www.geonames.org/654012/karjalohja.html
07.0.216	FIF216	Finnic	Tammela	60.8097	23.7665	Tammela	TAMMELA	60.7500	23.8333	http://www.geonames.org/634992/tammela.html
07.0.217	FIF217	Finnic	Nummi	60.3920	23.8860	Nummi	NUMMI	60.5000	23.8333	http://www.geonames.org/644289/nummi.html
07.0.218	FIF218	Finnic	Loppi	60.7178	24.4417	Loppi	LOPPI	60.6667	24.3333	http://www.geonames.org/647660/loppi.html
07.0.219	FIF219	Finnic	Nurmijärvi	60.4638	24.8076	Nurmijärvi	NURMIJAERVI	60.4167	24.7500	http://www.geonames.org/644171/nurmijaervi.html
07.0.220	FIF220	Finnic	Hausjärvi	60.7822	24.9933	Hausjärvi	HAUSJAERVI	60.7500	24.9167	http://www.geonames.org/644002/oitti.html
07.0.221	FIF221	Finnic	Pornainen	60.4758	25.3750	Pornainen	PORNAINEN	60.5000	25.3333	http://www.geonames.org/640973/pornainen.html
07.0.222	FIF222	Finnic	Orimattila	60.8017	25.7288	Orimattila	ORIMATTILA	60.8333	25.8333	http://www.geonames.org/643645/orimattila.html
07.0.223	FIF223	Finnic	Myrskylä	60.6697	25.8537	Myrskylä	MYRSKYLAE	60.6667	25.6667	http://www.geonames.org/645233/myrskylae.html
07.0.224	FIF224	Finnic	Sippola	60.7392	27.0007	Sippola	SIPPOLA	60.8333	27.0833	http://www.geonames.org/636706/sippola.html
07.0.225	FIF225	Finnic	Luumäki	60.9225	27.5693	Luumäki	LUUMAEKI	60.8333	27.6667	http://www.geonames.org/635243/taavetti.html
07.0.226	FIF226	Finnic	Virolahti	60.5829	27.7069	Virolahti	VIROLAHTI	60.5833	27.5833	http://www.geonames.org/631393/virojoki.html
07.0.227	FIF227	Finnic	Salla	66.8331	28.6673	Salla	SALLA	66.8333	28.6667	http://www.geonames.org/638074/salla.html
07.0.228	FIF228	Finnic	Sodankylä	67.4160	26.5890	Sodankylä	SODANKYLAE	67.5833	26.6667	http://www.geonames.org/636464/sodankylae.html
07.0.229	FIF229	Finnic	Kolari	67.3319	23.7893	Kolari	KOLARI	67.1667	24.5000	http://www.geonames.org/655740/jokijalka.html
07.0.230	FIF230	Finnic	Paltamo	64.4083	27.8417	Paltamo	PALTAMO	64.4167	27.3333	http://www.geonames.org/655684/jokiranta.html
07.0.231	FIF231	Finnic	Pihtipudas	63.3706	25.5755	Pihtipudas	PIHTIPUDAS	63.5000	25.2500	http://www.geonames.org/638623/ruukki.html
07.0.232	FIF232	Finnic	Korpilahti	62.0164	25.5614	Korpilahti	KORPILAHTI	62.0000	25.8333	http://www.geonames.org/651350/korpilahti.html
07.0.233	FIF233	Finnic	Leppävirta	62.5000	27.7833	Leppävirta	LEPPAEVIRTA	62.5000	28.2500	http://www.geonames.org/648227/leppaevirta.html
07.0.234	FIF234	Finnic	Elimäki	60.7199	26.4449	Elimäki	ELIMAEKI	60.7500	26.4167	http://www.geonames.org/660294/elimaeki.html
07.5.501	FIG501	Germanic	Esse	63.5930	23.0540	Esse	ESSE	63.5833	23.0000	http://www.geonames.org/660126/esse.html
07.5.502	FIG502	Germanic	Närpes	62.4728	21.3372	Närpes	NAERPES	62.5333	21.3333	http://www.geonames.org/645081/naerpes.html
07.5.503	FIG503	Germanic	Kumlinge	60.2588	20.7780	Kumlinge	KUMLINGE	60.2500	20.8333	http://www.geonames.org/650395/kumlinge.html
07.5.504	FIG504	Germanic	Pargas	60.3011	22.3022	Pargas	PARGAS	60.1667	22.7500	http://www.geonames.org/7911309/laensi-turunmaa.html
07.5.505	FIG505	Germanic	Tenala	60.0585	23.2982	Tenala	TENALA	60.0833	23.4167	http://www.geonames.org/634740/tenala.html
07.5.506	FIG506	Germanic	Strömfors	60.5242	26.4731	Strömfors	STROEMFORS	60.5000	26.5000	http://www.geonames.org/638711/ruotsinpyhtaeae.html
07.5.601	FIG601	Germanic	Vörå	63.1285	22.2507	Vörå	VOERA	63.1333	22.2500	http://www.geonames.org/8128759/voera.html
07.5.602	FIG602	Germanic	Malax	62.9332	21.5683	Malax	MALAX	62.8333	21.5000	http://www.geonames.org/646875/malax.html
07.5.603	FIG603	Germanic	Lappfjärd	62.2551	21.5257	Lappfjärd	LAPPFJAERD	62.2833	21.6167	http://www.geonames.org/648896/lappfjaerd.html
07.5.604	FIG604	Germanic	Finström	60.2310	19.9880	Finström	FINSTROEM	60.1667	19.9167	http://www.geonames.org/659823/godby.html
07.5.605	FIG605	Germanic	Houtskär	60.2229	21.3723	Houtskär	HOUTSKAER	60.3333	21.5000	http://www.geonames.org/657305/houtskaer.html
07.5.606	FIG606	Germanic	Kirkkonummi	60.1238	24.4415	Kyrkslätt	KYRKSLAETT	60.1167	24.3333	http://www.geonames.org/649630/kirkkonummi.html
07.5.607	FIG607	Germanic	Sibbo	60.3750	25.2667	Sibbo	SIBBO	60.3000	25.3333	http://www.geonames.org/637067/sibbo.html
07.9.901	FIL901	Lapp	Utsjoki	69.9090	27.0285	Utsjoki	UTSJOKI	69.8833	27.0000	http://www.geonames.org/633268/utsjoki.html
07.9.902	FIL902	Lapp	Sevettijärvi	69.5055	28.5916	Sevettijärvi	SEVETTIJAERVI	69.5333	28.5833	http://www.geonames.org/637078/sevettijaervi.html
07.9.903	FIL903	Lapp	Enontekiö	68.3847	23.6389	Enontekiö	ENONTEKIOE	68.3833	24.7500	http://www.geonames.org/658108/hetta.html
07.9.904	FIL904	Lapp	Inari	68.9050	27.0304	Inari	INARI	68.9000	27.0167	http://www.geonames.org/656657/inari.html
07.9.905	FIL905	Lapp	Nellim	68.8455	28.3150	Nellim	NELLIM	68.8333	28.3167	http://www.geonames.org/644976/nellim.html
07.9.923	NOL923	Lapp	Polmak	70.0697	28.0111	Polmak	POLMAK	70.0000	28.0167	http://www.geonames.org/778261/buolbmat.html
07.9.924	NOL924	Lapp	Tana	70.2033	28.1770	Tana	TANA (L)	70.1667	28.2000	http://www.geonames.org/777197/tana.html
07.9.925	NOL925	Lapp	Nesseby	70.1520	28.8647	Nesseby	NESSEBY	70.0500	28.5833	http://www.geonames.org/778560/unjarga.html
07.9.926	NOL926	Lapp	Manndalen	69.5232	20.5388	Manndalen_i_Lyngen	MANNDALEN I LYNGEN L	69.5000	20.5000	http://www.geonames.org/778776/manndalen.html
07.9.927	NOL927	Lapp	Kvænangen	69.9371	22.0499	Kvænangen	KVAENANGEN	69.8667	22.0000	http://www.geonames.org/779159/kvaenangen.html
07.9.928	NOL928	Lapp	Kautokeino	69.0125	23.0412	Kautokeino	KAUTOKEINO	69.0000	23.0000	http://www.geonames.org/779330/kautokeino.html
07.9.929	NOL929	Lapp	Karasjok	69.4719	25.5112	Karasjok	KARASJOK	69.4667	25.5000	http://www.geonames.org/779350/karasjohka.html
07.9.930	NOL930	Lapp	Skånland	68.5855	16.5798	Skånland	SKALAND	68.5667	16.6667	http://www.geonames.org/3139372/skanland.html
07.9.932	NOL932	Lapp	Tysfjord	68.0963	16.3679	Tysfjord	TYSFKORD	67.9000	16.2167	http://www.geonames.org/3133482/tysfjord.html
07.9.933	NOL933	Lapp	Grane	65.4006	13.5106	Grane	GRANE	65.1667	13.3333	http://www.geonames.org/3155295/grane.html
07.9.934	NOL934	Lapp	Røyrvik	64.8873	13.5622	Røyrvik	ROYRVIK	64.8000	13.6667	http://www.geonames.org/3141061/royrvik.html
07.9.935	NOL935	Lapp	Riasten	62.8452	11.7657	Riasten_i_Brekken	RIASTEN I BREKKEN	62.8167	11.8333	http://www.geonames.org/3141886/riasten.html
07.9.941	SEL941	Lapp	Jukkasjärvi	67.8518	20.6032	Jukkasjärvi	JUKKASJAERVI (L)	68.1000	19.9000	http://www.geonames.org/8126345/jukkasjaervi-socken.html
07.9.942	SEL942	Lapp	Karesuando	68.4426	22.4501	Karesuando	KARESUANDO (L)	68.1167	22.1833	http://www.geonames.org/8132807/karesuando.html
07.9.943	SEL943	Lapp	Gällivare	67.1553	20.6507	Gällivare	GAELLIVARE (L)	67.4333	20.8500	http://www.geonames.org/606086/gaellivare.html
07.9.944	SEL944	Lapp	Norra Tärna	65.7128	15.2817	Norra_Tärna	NORRA TAERNA (L)	66.0500	14.7833	http://www.geonames.org/8132994/taerna.html
07.9.945	SEL945	Lapp	Arjeplog	66.0537	17.9027	Arjeplog	ARJEPLOG (L)	66.0333	18.7167	http://www.geonames.org/2725372/arjeplog.html
07.9.946	SEL946	Lapp	Jokkmokk	66.6000	19.8333	Jokkmokk	JOKKMOKK (L)	66.6000	19.8333	http://www.geonames.org/2702997/jokkmokk.html
07.9.947	SEL947	Lapp	Tärna, Stensele	65.5500	15.9667	Tärna_Stensele	TAERNE STENSELE (L)	65.5500	15.9667	http://www.geonames.org/2671529/storumans-kommun.html
07.9.948	SEL948	Lapp	Sorsele	65.5349	17.5422	Sorsele	SORSELE (L)	65.7167	18.2833	http://www.geonames.org/2675079/sorsele.html
07.9.949	SEL949	Lapp	Arvidsjaur	65.5862	19.2019	Arvidsjaur	ARVIDSJAUR (L)	65.7500	19.9167	http://www.geonames.org/2725136/arvidsjaur.html
07.9.951	SEL951	Lapp	Vilhelmina Risbäck	64.7040	15.5388	Vilhelmina_Risbäck	VILHELMINA RISBAECK L	64.5000	15.4833	http://www.geonames.org/2682421/risbaeck.html
07.9.952	SEL952	Lapp	Offerdal	63.4661	14.0094	Offerdal	OFFERDAL (L)	63.7500	13.3667	http://www.geonames.org/8132587/offerdal.html
07.9.954	SEL954	Lapp	Tännäs Idre	61.8579	12.7269	Tännäs_Idre	TAENNAES IDRE (L)	62.1333	12.5500	http://www.geonames.org/2703880/idre.html
07.9.981	RUL981	Lapp	Tuloma	68.8192	32.6903	Tuloma	TULOMA	68.8333	32.6667	http://www.geonames.org/480524/tuloma.html
07.9.982	RUL982	Lapp	Lovozero	68.0064	35.0260	Lovozero	LOVOZERO	68.0833	35.0000	http://www.geonames.org/533933/lovozero.html
07.9.983	RUL983	Lapp	Varzino	68.3572	38.3738	Varzino	VARZINO	68.2500	38.5000	http://www.geonames.org/476874/varzino.html
07.9.984	RUL984	Lapp	Iokan'ga	68.0540	39.5107	Iokan'ga	IOKAN'GA	68.0000	39.6667	http://www.geonames.org/556267/iokanga.html
07.9.985	RUL985	Lapp	Babino	67.5426	31.8920	Babino	BABINO	67.5833	30.9167	http://www.geonames.org/579928/babino.html
08.0.002	FRR002	Romance	Nort-Leulinghen	50.8010	2.0924	Nort-Leulinghen	NORT-LEULINGHEN	50.8333	2.0000	http://www.geonames.org/2990086/nort-leulinghem.html
08.0.003	FRR003	Romance	Torcy	50.4833	2.0227	Torcy	TORCY	50.5000	2.0000	http://www.geonames.org/6439921/torcy.html
08.0.004	FRR004	Romance	Verquineul	50.5019	2.6650	Verquineul	VERQUIGNEUL	50.5000	2.6667	http://www.geonames.org/2969723/verquigneul.html
08.0.005	FRR005	Romance	Templeuve-en-Pévèle	50.5269	3.1798	Templeuve-en-Pévèle	TEMPLEUVE-EN-PEVELE	50.5000	3.0000	http://www.geonames.org/2973187/templeuve.html
08.0.006	FRR006	Romance	La Longuiville	50.2927	3.8662	La_Longuiville	LA LONGUEVILLE	50.3333	3.5000	http://www.geonames.org/6614768/la-longueville.html
08.0.007	FRR007	Romance	Lanchères	50.1572	1.5536	Lanchères	LANCHERES	50.1667	1.6667	http://www.geonames.org/6444557/lancheres.html
08.0.008	FRR008	Romance	Candas	50.1072	2.2582	Candas	CANDAS	50.1667	2.3333	http://www.geonames.org/3028852/candas.html
08.0.009	FRR009	Romance	Vélu	50.1083	2.9743	Vélu	VELU	50.1667	3.0000	http://www.geonames.org/2970168/velu.html
08.0.010	FRR010	Romance	Maurois	50.0725	3.4665	Maurois	MAUROIS	50.1667	3.6667	http://www.geonames.org/2995010/maurois.html
08.0.011	FRR011	Romance	Glageon	50.0569	4.0721	Glageon	GLAGEON	50.1667	4.0000	http://www.geonames.org/3015870/glageon.html
08.0.012	FRR012	Romance	St. Vaast Dieppedalle	49.7554	0.7221	St._Vaast_Dieppedalle	S. VAAST DIEPPEDALLE	49.8333	0.6667	http://www.geonames.org/6443512/saint-vaast-dieppedalle.html
08.0.013	FRR013	Romance	Bellengreville	49.9067	1.2186	Bellengreville	BELLENGREVILLE	49.8333	1.3333	http://www.geonames.org/3033672/bellengreville.html
08.0.014	FRR014	Romance	Blangy-sous-Poix	49.7665	2.0036	Blangy-sous-Poix	BLANGY-SOUS-POIX	49.8333	2.0000	http://www.geonames.org/6444276/blangy-sous-poix.html
08.0.015	FRR015	Romance	Vrély	49.7991	2.6923	Vrély	VRELY	49.8333	2.6667	http://www.geonames.org/6444812/vrely.html
08.0.016	FRR016	Romance	Vermand	49.8781	3.1498	Vermand	VERMAND	49.8333	3.3333	http://www.geonames.org/6425300/vermand.html
08.0.017	FRR017	Romance	Dizy-le-Gros	49.6294	4.0222	Dizy-le-Gros	DIZY-LE-GROS	49.8333	4.0000	http://www.geonames.org/6424876/dizy-le-gros.html
08.0.018	FRR018	Romance	Sormonne	49.8110	4.5661	Sormonne	SORMONNE	49.8333	4.6667	http://www.geonames.org/2974178/sormonne.html
08.0.019	FRR019	Romance	La Frenaye	49.5224	0.5731	La_Frenaye	LA FRENAYE	49.5000	0.3333	http://www.geonames.org/6614452/la-frenaye.html
08.0.020	FRR020	Romance	Bertrimont	49.6680	0.9999	Bertrimont	BERTRIMONT	49.5000	1.0000	http://www.geonames.org/3033153/bertrimont.html
08.0.021	FRR021	Romance	Beaubec-la-Rosière	49.6454	1.5314	Beauté-la-Rosière	BEAUTEE-LA-ROSIERE	49.5000	1.6667	http://www.geonames.org/6451103/beaubec-la-rosiere.html
08.0.022	FRR022	Romance	Plainval	49.5288	2.4414	Plainval	PLAINVAL	49.5000	2.3333	http://www.geonames.org/2986943/plainval.html
08.0.023	FRR023	Romance	Jaulzy	49.3950	3.0662	Jaulzy	JAULZY	49.5000	3.0000	http://www.geonames.org/3012423/jaulzy.html
08.0.024	FRR024	Romance	Suzy	49.5506	3.4672	Suzy	SUZY	49.5000	3.6667	http://www.geonames.org/2973606/suzy.html
08.0.025	FRR025	Romance	Le Châtelet	49.4167	4.2775	La_Châtelet	LE CHATELET	49.5000	4.3333	http://www.geonames.org/6455483/le-chatelet-sur-retourne.html
08.0.026	FRR026	Romance	Haraucourt	49.6215	4.9607	Haraucourt	HARAUCOURT	49.5000	5.0000	http://www.geonames.org/6425967/haraucourt.html
08.0.027	FRR027	Romance	Thil	49.4729	5.9083	Thil	THIL	49.5000	5.6667	http://www.geonames.org/6454313/thil.html
08.0.028	FRR028	Romance	Fresville	49.4396	-1.3562	Fresville	FRESVILLE	49.5000	-1.3333	http://www.geonames.org/6435411/fresville.html
08.0.029	FRR029	Romance	Créances	49.2010	-1.5666	Créances	CREANCES	49.1667	-1.0000	http://www.geonames.org/6435386/creances.html
08.0.030	FRR030	Romance	Feuguerolles-sur-Orne	49.1166	-0.4048	Feuguerolles-sur-Orne	FEUGUEROLLES-SUR-ORNE	49.1667	-0.3333	http://www.geonames.org/3018580/feuguerolles-bully.html
08.0.031	FRR031	Romance	St. Christophe-sur-Condé	49.2871	0.5985	St._Christophe-sur-Condé	ST CHRISTOPHE-SUR-CONDE	49.1667	0.3333	http://www.geonames.org/6430568/saint-christophe-sur-conde.html
08.0.032	FRR032	Romance	Barc	49.0703	0.8176	Barc	BARC	49.1667	1.0000	http://www.geonames.org/6447943/barc.html
08.0.033	FRR033	Romance	Liancourt St. Pierre	49.2349	1.9086	Liancourt_St._Pierre	LIANCOURT S. PIERRE	49.1667	1.6667	http://www.geonames.org/6438793/liancourt-saint-pierre.html
08.0.034	FRR034	Romance	St. Martin-Longeau	49.3424	2.6047	St._Martin-Longeau	S. MARTIN-LONGEAU	49.1667	2.3333	http://www.geonames.org/6438960/saint-martin-longueau.html
08.0.035	FRR035	Romance	Marolles	49.1703	3.1045	Marsolles	MAROLLES	49.1667	3.0000	http://www.geonames.org/2995576/marolles.html
08.0.036	FRR036	Romance	Chartèves	49.0750	3.5060	Chartèves	CHARTEVES	49.1667	3.6667	http://www.geonames.org/3026470/charteves.html
08.0.037	FRR037	Romance	Verzenay	49.1598	4.1461	Verzenay	VERZENAY	49.1667	4.3333	http://www.geonames.org/2969590/verzenay.html
08.0.038	FRR038	Romance	Aubréville	49.1437	5.0811	Aubréville	AUBREVILLE	49.1667	5.0000	http://www.geonames.org/6449758/aubreville.html
08.0.039	FRR039	Romance	Eix	49.1790	5.4985	Eix	EIX	49.1667	5.6667	http://www.geonames.org/6436994/eix.html
08.0.040	FRR040	Romance	Quetteville	49.3369	0.3093	Quetteville	QUETTEVILLE	48.8333	-1.0000	http://www.geonames.org/6427393/quetteville.html
08.0.041	FRR041	Romance	Clecy	48.9169	-0.4816	Clecy	CLECY	48.8333	-0.3333	http://www.geonames.org/3024695/clecy.html
08.0.042	FRR042	Romance	La Chapelle-Yvon	49.0656	0.3356	La_Chapelle-Yvon	LA CHAPELLE-YVON	48.8333	0.3333	http://www.geonames.org/3010214/la-chapelle-yvon.html
08.0.043	FRR043	Romance	Breux-sur-Avre	48.7730	1.0798	Breux	BREUX	48.8333	1.0000	http://www.geonames.org/6430288/breux-sur-avre.html
08.0.044	FRR044	Romance	Gommecourt	49.0752	1.5938	Gommecourt	GOMMECOURT	48.8333	1.6667	http://www.geonames.org/6613733/gommecourt.html
08.0.045	FRR045	Romance	Le Plesis-Robinson	48.7813	2.2619	Le_Plesis-Piquet	LE PLESSIS-PIQUET	48.8333	2.3333	http://www.geonames.org/6457182/le-plessis-robinson.html
08.0.046	FRR046	Romance	Sammeron	48.9474	3.0804	Sammeron	SAMMERON	48.8333	3.0000	http://www.geonames.org/6443849/sammeron.html
08.0.047	FRR047	Romance	Linthes	48.7304	3.8479	Linthes	LINTHES	48.8333	3.6667	http://www.geonames.org/2998206/linthes.html
08.0.048	FRR048	Romance	Courtisols	48.9874	4.5155	Courtisols	COURTISOLS ALCB	48.8333	4.3333	http://www.geonames.org/3022882/courtisols.html
08.0.049	FRR049	Romance	Sommelonne	48.6707	5.0369	Sommelonne	SOMMELONNE	48.8333	5.0000	http://www.geonames.org/6437215/sommelonne.html
08.0.050	FRR050	Romance	Fresnes-au-Mont	48.8962	5.4399	Fresnes-au-Mont	FRESNES-AU-MONT	48.8333	5.6667	http://www.geonames.org/3017176/fresnes-au-mont.html
08.0.051	FRR051	Romance	Moncel-Sur-Seille	48.7654	6.4226	Moncel-Sur-Seille	MONCEL-SUR-SEILLE	48.8333	6.3333	http://www.geonames.org/6436756/moncel-sur-seille.html
08.0.052	FRR052	Romance	Plouvara	48.5086	-2.9151	Plouvara	PLOUVARA	48.5000	-2.6667	http://www.geonames.org/2986630/plouvara.html
08.0.053	FRR053	Romance	Trévron	48.3908	-2.0651	Trévrou	TREVROU	48.5000	-2.0000	http://www.geonames.org/6429195/trevron.html
08.0.054	FRR054	Romance	Vieux-Viel	48.5110	-1.5445	Vieux-Viel	VIEUX-VIEL	48.5000	-1.3333	http://www.geonames.org/2969174/vieux-viel.html
08.0.055	FRR055	Romance	Dompierre	48.6322	-0.5515	Dompierre	DOMPIERRE	48.5000	-0.6667	http://www.geonames.org/3021145/dompierre.html
08.0.056	FRR056	Romance	Héloup	48.3985	0.0277	Héloup	HELOUP	48.5000	0.0000	http://www.geonames.org/3013552/heloup.html
08.0.057	FRR057	Romance	Réveillon	48.4781	0.5597	Réveillon	REVEILLON	48.5000	0.6667	http://www.geonames.org/2983839/reveillon.html
08.0.058	FRR058	Romance	Droue	48.0406	1.0762	Droue	DROUE	48.5000	1.3333	http://www.geonames.org/6455099/droue.html
08.0.059	FRR059	Romance	Ormoy-la-Rivière	48.4041	2.1492	Ormoy-la-Rivière	ORMOY-LA-RIVIERE	48.5000	2.0000	http://www.geonames.org/2989260/ormoy-la-riviere.html
08.0.060	FRR060	Romance	Chailly-en-Bière	48.4670	2.6068	Chailly-en-Bière	CHAILLY-EN-BIERE	48.5000	2.6667	http://www.geonames.org/6451174/chailly-en-biere.html
08.0.061	FRR061	Romance	Longueville	48.5145	3.2473	Longueville	LONGUEVILLE	48.5000	3.3333	http://www.geonames.org/6613861/longueville.html
08.0.062	FRR062	Romance	Saint-Étienne	48.5010	4.1092	St.-Etienne	S.-ETIENNE	48.5000	4.0000	http://www.geonames.org/2980216/saint-etienne-sous-barbuise.html
08.0.063	FRR063	Romance	Drosnay	48.5768	4.6164	Rosnay	ROSNAY	48.5000	4.6667	http://www.geonames.org/3020775/drosnay.html
08.0.064	FRR064	Romance	Tréveray	48.6103	5.3972	Tréveray	TREVERAY	48.5000	5.3333	http://www.geonames.org/6437231/treveray.html
08.0.065	FRR065	Romance	Crépey	48.5265	5.9732	Crépey	CREPEY	48.5000	6.0000	http://www.geonames.org/6436558/crepey.html
08.0.066	FRR066	Romance	Igney	48.2735	6.3972	Igney	IGNEY	48.3333	6.8333	http://www.geonames.org/3012894/igney.html
08.0.067	FRR067	Romance	Uzel	48.2804	-2.8410	Uzel	UZEL	48.1667	-2.6667	http://www.geonames.org/6453812/uzel.html
08.0.068	FRR068	Romance	l'Hermitage	48.1275	-1.8179	l'Hermitage	L'HERMITAGE	48.1667	-2.0000	http://www.geonames.org/6614362/l-hermitage.html
08.0.069	FRR069	Romance	Saint-Melaine-sur-Vilaine	48.1109	-1.3823	St._Melaine-sur-Villaine	S. MELAINE-SUR-VILLAINE	48.1667	-1.3333	http://www.geonames.org/2979188/saint-jean-sur-vilaine.html
08.0.070	FRR070	Romance	Le Genest-Saint-Isle	48.0992	-0.8878	Le_Genest	LE GENEST	48.1667	-0.6667	http://www.geonames.org/6617023/le-genest-saint-isle.html
08.0.071	FRR071	Romance	Domfront-en-Champagne	48.1059	0.0272	Domfront-en-Champagne	DOMFRONT-EN-CHAMPAGNE	48.1667	0.0000	http://www.geonames.org/6442565/domfront-en-champagne.html
08.0.072	FRR072	Romance	Boëssé-le-Sec	48.1346	0.5634	Boëssé-le-Sec	BOESSE-LE-SEC	48.1667	0.6667	http://www.geonames.org/6450920/boesse-le-sec.html
08.0.073	FRR073	Romance	Saint-Christophe	48.1274	1.3660	St._Christophe	S. CHRISTOPHE	48.1667	1.3333	http://www.geonames.org/2981158/saint-christophe.html
08.0.074	FRR074	Romance	Montigny-La-Brosse	48.1118	2.1107	Montigny-La-Brosse	MONTIGNY-LA-LBROSSE ALIFO	48.1667	2.0000	http://www.geonames.org/6614750/montigny.html
08.0.075	FRR075	Romance	Chenou	48.1654	2.6592	Chenou	CHENOU	48.1667	2.6667	http://www.geonames.org/3025499/chenou.html
08.0.076	FRR076	Romance	Molinons	48.2325	3.5363	Molinons	MOLINONS	48.1667	3.3333	http://www.geonames.org/6445932/molinons.html
08.0.077	FRR077	Romance	Rouilly-Saint-Loup	48.2632	4.1466	Rouilly-sur-Loup	ROUILLY-SUR-LOUP	48.1667	4.0000	http://www.geonames.org/2982546/rouilly-saint-loup.html
08.0.078	FRR078	Romance	Baroville	48.1925	4.7222	Baroville	BAROVILLE	48.1667	4.6667	http://www.geonames.org/6620036/baroville.html
08.0.079	FRR079	Romance	Illoud	48.2092	5.5613	Illoud	ILLOUD	48.1667	5.3333	http://www.geonames.org/3030950/bourg-sainte-marie.html
08.0.080	FRR080	Romance	Les Voivres	48.0314	6.2957	Les_Voivres	LES VOIVRES	48.1667	6.0000	http://www.geonames.org/6456619/les-voivres.html
08.0.081	FRR081	Romance	Champ-le-Duc	48.1942	6.7192	Champ-le-Duc	CHAMP-LE-DUC	48.1667	6.6667	http://www.geonames.org/6451805/champ-le-duc.html
08.0.082	FRR082	Romance	Plumelec	47.8377	-2.6394	Plumelec	PLUMELEC	47.8333	-2.3333	http://www.geonames.org/2986611/plumelec.html
08.0.083	FRR083	Romance	Messac	47.8248	-1.8079	Messac	MESSAC	47.8333	-1.6667	http://www.geonames.org/6432752/messac.html
08.0.084	FRR084	Romance	Congrier	47.8090	-1.1164	Conquier	CONQUIER	47.8333	-1.0000	http://www.geonames.org/3023907/congrier.html
08.0.085	FRR085	Romance	Villaines-sous-Malicorne	47.7628	-0.1010	Villaines-sous-Malicorne	VILLAINES-SOUS-MALICORNE	47.8333	-0.3333	http://www.geonames.org/6442775/villaines-sous-malicorne.html
08.0.086	FRR086	Romance	Saint-Pierre-du-Lorouër	47.8057	0.5215	St._Pierre-du-Loronët	S. PIERRE-DU-LORONET	47.8333	0.3333	http://www.geonames.org/6442722/saint-pierre-du-lorouer.html
08.0.087	FRR087	Romance	St. Ouen	47.8097	1.0818	St._Ouen	S. OUEN	47.8333	1.0000	http://www.geonames.org/6454134/saint-ouen.html
08.0.088	FRR088	Romance	Saint-Ay	47.8666	1.7506	St._Ay	S. AY	47.8333	1.6667	http://www.geonames.org/2981488/saint-ay.html
08.0.089	FRR089	Romance	Poilly	47.6766	2.5943	Poilly	POILLY	47.8333	2.3333	http://www.geonames.org/2986546/poilly-lez-gien.html
08.0.090	FRR090	Romance	La Celle-St. Cyr	47.9744	3.2887	La_Celle-St._Cyr	LA CELLE-S.CYR	47.8333	3.0000	http://www.geonames.org/3010528/la-celle-saint-cyr.html
08.0.091	FRR091	Romance	Maligny	47.8694	3.7643	Maligny	MALIGNY	47.8333	3.6667	http://www.geonames.org/2996415/maligny.html
08.0.092	FRR092	Romance	Crusy-le-Châtel	47.8564	4.2124	Crusy-le-Châtel	CRUSY-LE-CHATEL	47.8333	4.3333	http://www.geonames.org/3022204/cruzy-le-chatel.html
08.0.093	FRR093	Romance	Cour-L'Evêque	47.9658	4.9768	Cour-L'Evêque	COUR-L'EVEQUE	47.8333	5.0000	http://www.geonames.org/6614685/cour-l-eveque.html
08.0.094	FRR094	Romance	Coiffy-le-Haut	47.9067	5.6969	Coiffy-le-Haut	COIFFY-LE-HAUT	47.8333	5.6667	http://www.geonames.org/6436140/coiffy-le-haut.html
08.0.095	FRR095	Romance	Conflans-sur-Lanterne	47.8151	6.2086	Conflans-sur-Lanterne	CONFLANS-SUR-LANTERNE	47.8333	6.3333	http://www.geonames.org/6617476/conflans-sur-lanterne.html
08.0.096	FRR096	Romance	Rouge Goutte	47.7321	6.8513	Rouge_Goutte	ROUGE GOUTTE	47.6667	7.0000	http://www.geonames.org/6451932/rougegoutte.html
08.0.097	FRR097	Romance	Besné	47.3966	-2.0923	Besné	BESNE	47.5000	-2.0000	http://www.geonames.org/6449071/besne.html
08.0.098	FRR098	Romance	Issé	47.6235	-1.4509	Issé	ISSE	47.5000	-1.3333	http://www.geonames.org/6449106/isse.html
08.0.099	FRR099	Romance	Avrillé	47.5053	-0.5906	Avrillé	AVRILLE	47.5000	-0.6667	http://www.geonames.org/6458642/avrille.html
08.0.100	FRR100	Romance	Bocé	47.5054	-0.0828	Bocé	BOCE	47.5000	0.0000	http://www.geonames.org/3032173/boce.html
08.0.101	FRR101	Romance	St. Antoine du Rocher	47.4896	0.6296	St._Antoine_du_Rocher	S. ANTOINE DU ROCHER	47.5000	0.6667	http://www.geonames.org/6433098/saint-antoine-du-rocher.html
08.0.102	FRR102	Romance	Suèvres	47.6672	1.4606	Suèvres	SUEVRES	47.5000	1.3333	http://www.geonames.org/6434139/suevres.html
08.0.103	FRR103	Romance	Nouan-le-Fuzelier	47.5365	2.0383	Nouan-le-Fuzelier	NOUAN-LE-FUZELIER	47.5000	2.0000	http://www.geonames.org/6434072/nouan-le-fuzelier.html
08.0.104	FRR104	Romance	Cernoy-en-Berry	47.5384	2.6588	Cernoy-en-Berry	CERNOY-EN-BERRY	47.5000	2.6667	http://www.geonames.org/6449166/cernoy-en-berry.html
08.0.105	FRR105	Romance	Oudan	47.3466	3.3493	Oudan	OUDAN	47.5000	3.3333	http://www.geonames.org/2989063/oudan.html
08.0.106	FRR106	Romance	Magny	47.4825	3.9776	Magny	MAGNY	47.5000	4.0000	http://www.geonames.org/2996775/magny.html
08.0.107	FRR107	Romance	Gissey-sous-Flavigny	47.5128	4.5899	Gissey-sous-Flavigny	GISSEY-SOUS-FLAVIGNY	47.5000	4.6667	http://www.geonames.org/3015922/gissey-sous-flavigny.html
08.0.108	FRR108	Romance	Champlitte	47.6167	5.5132	Champlitte	CHAMPLITTE	47.5000	5.3333	http://www.geonames.org/6617472/champlitte.html
08.0.109	FRR109	Romance	Fresne-Saint-Mamès	47.5488	5.8600	Fresnes-s.-Mamès	FRESNES-S.-MAMES	47.5000	6.0000	http://www.geonames.org/6441953/fresne-saint-mames.html
08.0.110	FRR110	Romance	Villers-la-Ville	47.5477	6.4636	Villers-la-Ville	VILLERS-LA-VILLE	47.5000	6.6667	http://www.geonames.org/6442166/villers-la-ville.html
08.0.111	FRR111	Romance	Chémèré	47.1222	-1.9151	Chémèré	CHEMERE	47.1667	-2.0000	http://www.geonames.org/6614150/chemere.html
08.0.112	FRR112	Romance	Gorges	47.1018	-1.3039	Gorges	GORGES	47.1667	-1.3333	http://www.geonames.org/6449099/gorges.html
08.0.113	FRR113	Romance	Chemillé	47.2101	-0.7274	Chemillé	CHEMILLE	47.1667	-0.6667	http://www.geonames.org/6455148/chemille-melay.html
08.0.114	FRR114	Romance	St. Nicolas-de-Bourgueil	47.2849	0.1253	St._Nicolas-de-Bourgueil	S. NICOLAS-DE-BOURGUEIL	47.1667	0.0000	http://www.geonames.org/6433119/saint-nicolas-de-bourgueil.html
08.0.115	FRR115	Romance	Marcé-sur-Esves	47.0301	0.6531	Marée-dur-Esves	MAREE-SUR-ESVES	47.1667	0.6667	http://www.geonames.org/2996040/marce-sur-esves.html
08.0.116	FRR116	Romance	La Vernelle	47.2480	1.5420	La_Vernelle	LA VERNELLE	47.1667	1.3333	http://www.geonames.org/3005659/la-vernelle.html
08.0.117	FRR117	Romance	Berry-Bouy	47.1110	2.2897	Berry-Bouy	BERRY-BOUY	47.1667	2.0000	http://www.geonames.org/6447434/berry-bouy.html
08.0.118	FRR118	Romance	Azy	47.1831	2.7078	Azy	AZY	47.1667	2.6667	http://www.geonames.org/6447428/azy.html
08.0.119	FRR119	Romance	Parigny-les-Vaux	47.0921	3.1473	Parigny-les-Vaux	PARIGNY-LES-VAUX	47.1667	3.3333	http://www.geonames.org/6438046/parigny-les-vaux.html
08.0.120	FRR120	Romance	St. Martin-de-la-Mer	47.2377	4.2335	St._Martin-de-la-Mer	S. MARTIN-DE-LA-MER	47.1667	4.0000	http://www.geonames.org/2978380/saint-martin-de-la-mer.html
08.0.121	FRR121	Romance	Morey	46.8013	4.6001	Morey	MOREY	47.1667	4.6667	http://www.geonames.org/6454625/morey.html
08.0.122	FRR122	Romance	Amange	47.1632	5.5644	Amange	AMANGE	47.1667	5.3333	http://www.geonames.org/3037970/amange.html
08.0.123	FRR123	Romance	Bouclans	47.2501	6.2372	Bouclans	BOUCLANS	47.1667	6.0000	http://www.geonames.org/6447852/bouclans.html
08.0.124	FRR124	Romance	Avoudrey	47.1339	6.4356	Avondrey	AVONDREY	47.1667	6.6667	http://www.geonames.org/6447826/avoudrey.html
08.0.125	FRR125	Romance	Givrand	46.6713	-1.8838	Givrand	GIVRAND	46.8333	-1.6667	http://www.geonames.org/6445128/givrand.html
08.0.126	FRR126	Romance	La Verrie	46.9625	-0.9969	La_Verrie	LA VERRIE	46.8333	-1.0000	http://www.geonames.org/3005640/la-verrie.html
08.0.127	FRR127	Romance	Oroux	46.6922	-0.0895	Oroux	OROUX	46.8333	-0.3333	http://www.geonames.org/6444165/oroux.html
08.0.128	FRR128	Romance	Dissay	46.7003	0.4307	Dissay	DISSAY	46.8333	0.3333	http://www.geonames.org/6451683/dissay.html
08.0.129	FRR129	Romance	St. Genou	46.9305	1.3387	St._Genou	S. GENOU	46.8333	1.0000	http://www.geonames.org/6432974/saint-genou.html
08.0.130	FRR130	Romance	Neuvy-Pailloux	46.8864	1.8589	Neuvy-Pailloux	NEUVY-PAILLOUX	46.8333	1.6667	http://www.geonames.org/6432930/neuvy-pailloux.html
08.0.131	FRR131	Romance	Bruère	46.7678	2.4312	Bruère	BRUERE	46.8333	2.3333	http://www.geonames.org/6447443/bruere-allichamps.html
08.0.132	FRR132	Romance	Marcigny	46.7871	3.0973	Marcigny	MARCIGNY	46.8333	3.0000	http://www.geonames.org/2995982/marcigny.html
08.0.133	FRR133	Romance	Luzy	46.7891	3.9699	Luzy	LUZY	46.8333	3.6667	http://www.geonames.org/6438005/luzy.html
08.0.134	FRR134	Romance	Mesvres	46.8623	4.2407	Mesvres	MESVRES	46.8333	4.3333	http://www.geonames.org/6442320/mesvres.html
08.0.135	FRR135	Romance	Thurey	46.7429	5.1213	Thurey	THUREY	46.8333	5.0000	http://www.geonames.org/2972646/thurey.html
08.0.136	FRR136	Romance	Montain	46.7205	5.5797	Montain	MONTAIN	46.8333	5.6667	http://www.geonames.org/6433647/montain.html
08.0.137	FRR137	Romance	La Rivière	46.8681	6.2178	La_Rivière	LA RIVIERE	46.8333	6.3333	http://www.geonames.org/3006888/la-riviere-drugeon.html
08.0.138	FRR138	Romance	Talmont-Saint-Hilaire	46.4664	-1.6187	Talmont	TALMONT	46.5000	-1.3333	http://www.geonames.org/6617859/talmont-saint-hilaire.html
08.0.139	FRR139	Romance	Charzais	46.4694	-0.7739	Charzeis	CHARZAIS	46.5000	-0.6667	http://www.geonames.org/3026446/charzais.html
08.0.140	FRR140	Romance	Pamproux	46.3959	-0.0556	Pamproux	PAMPROUX	46.5000	0.0000	http://www.geonames.org/6444169/pamproux.html
08.0.141	FRR141	Romance	Sillars	46.4196	0.7683	Sillards	SILLARDS	46.5000	0.6667	http://www.geonames.org/6445371/sillars.html
08.0.142	FRR142	Romance	Chaillac	46.4348	1.2974	Chaillac	CHAILLAC	46.5000	1.3333	http://www.geonames.org/6448586/chaillac.html
08.0.143	FRR143	Romance	Culan	46.5468	2.3502	Culan	CULAN	46.5000	2.0000	http://www.geonames.org/6447472/culan.html
08.0.144	FRR144	Romance	Désertines	46.3548	2.6182	Désertines	DESERTINES	46.5000	2.6667	http://www.geonames.org/6446574/desertines.html
08.0.145	FRR145	Romance	Souvigny	46.5339	3.1920	Souvigny	SOUVIGNY	46.5000	3.3333	http://www.geonames.org/2973897/souvigny.html
08.0.146	FRR146	Romance	Chassy	46.5870	4.1142	Chassy	CHASSY	46.5000	4.0000	http://www.geonames.org/6617517/chassy.html
08.0.147	FRR147	Romance	Préty	46.5429	4.9407	Préty	PRETY	46.5000	4.6667	http://www.geonames.org/2985368/prety.html
08.0.148	FRR148	Romance	St. Amour	46.4363	5.3453	St._Amour	S. AMOUR	46.5000	5.3333	http://www.geonames.org/2981805/saint-amour.html
08.0.149	FRR149	Romance	Morbier	46.5367	6.0146	Morbier	MORBIER	46.5000	6.0000	http://www.geonames.org/2991880/morbier.html
08.0.150	FRR150	Romance	Sainte-Marie-de-Ré	46.1524	-1.3128	Ste._Marie	S. MARIE	46.1667	-1.3333	http://www.geonames.org/2980429/sainte-marie-de-re.html
08.0.151	FRR151	Romance	Clavette	46.1392	-1.0276	Clavette	CLAVETTE	46.1667	-1.0000	http://www.geonames.org/6427920/clavette.html
08.0.152	FRR152	Romance	Prissé-la-Charrière	46.1519	-0.4848	Prissé	PRISSE	46.1667	-0.3333	http://www.geonames.org/3010184/la-charriere.html
08.0.153	FRR153	Romance	Blanzay	46.2015	0.2548	Blanzay	BLANZAY	46.1667	0.3333	http://www.geonames.org/6455307/blanzay.html
08.0.154	FRR154	Romance	Châteauponsac	46.1342	1.2765	Château-Ponsac	CHATEAU-PONSAC	46.1667	1.0000	http://www.geonames.org/6451708/chateauponsac.html
08.0.155	FRR155	Romance	Dun-le-Pallestel	46.3048	1.6643	Dun-le-Palleteau	DUN-LE-PALLETEAU	46.1667	1.6667	http://www.geonames.org/6447728/dun-le-palestel.html
08.0.156	FRR156	Romance	Auzances	46.0251	2.5007	Auzances	AUZANCES	46.1667	2.3333	http://www.geonames.org/6447686/auzances.html
08.0.157	FRR157	Romance	Chantelle	46.2388	3.1516	Chantelle	CHANTELLE	46.1667	3.0000	http://www.geonames.org/6454907/chantelle.html
08.0.158	FRR158	Romance	Ambierle	46.1042	3.8957	Ambierle	AMBRIERLE	46.1667	3.6667	http://www.geonames.org/6452313/ambierle.html
08.0.159	FRR159	Romance	Cours-la-Ville	46.0992	4.3216	Cours	COURS	46.1667	4.3333	http://www.geonames.org/6614554/cours-la-ville.html
08.0.160	FRR160	Romance	Replonges	46.3094	4.8826	Replonges	REPLONGES	46.1667	5.0000	http://www.geonames.org/2983942/replonges.html
08.0.161	FRR161	Romance	Brion	46.1727	5.5531	Brion	BRION	46.1667	5.6667	http://www.geonames.org/2978302/saint-martin-du-frene.html
08.0.162	FRR162	Romance	St. Pierre de Rumilly	46.0594	6.3678	St._Pierre_de_Rumilly	S. PIERRE DE RUMILLY	46.1667	6.3333	http://www.geonames.org/6617613/saint-pierre-en-faucigny.html
08.0.163	FRR163	Romance	Sixt-Fer-à-Cheval	46.0548	6.7756	Sixt	SIXT	46.1667	6.8333	http://www.geonames.org/6617617/sixt-fer-a-cheval.html
08.0.164	FRR164	Romance	La Cotinière	45.9164	-1.3306	La_Corinière	LA COTINIERE	45.8333	-1.3333	http://www.geonames.org/3009878/la-cotiniere.html
08.0.165	FRR165	Romance	Cabariot	45.9252	-0.8567	Cabariot	CABARIOT	45.8333	-1.0000	http://www.geonames.org/6447406/cabariot.html
08.0.166	FRR166	Romance	Varaize	45.9224	-0.4245	Varaize	VARAIZE	45.8333	-0.3333	http://www.geonames.org/2970742/varaize.html
08.0.167	FRR167	Romance	Saint Groux	45.8973	0.1671	St._Grouse	S. GROUSE	45.8333	0.3333	http://www.geonames.org/2979614/saint-groux.html
08.0.168	FRR168	Romance	Limoges	45.8336	1.2611	Limoges	LIMOGES	45.8333	1.0000	http://www.geonames.org/6451740/limoges.html
08.0.169	FRR169	Romance	Eymoutiers	45.7387	1.7422	Eymoutiers	EYMOUTIERS	45.8333	1.6667	http://www.geonames.org/6451725/eymoutiers.html
08.0.170	FRR170	Romance	Saint-Quentin-la-Chabanne	45.8644	2.1549	St._Quentin	S. QUENTIN	45.8333	2.3333	http://www.geonames.org/6429310/saint-quentin-la-chabanne.html
08.0.171	FRR171	Romance	Pontgibaud	45.8317	2.8529	Pontgibaud	PONTGIBAUD	45.8333	3.0000	http://www.geonames.org/2986185/pontgibaud.html
08.0.172	FRR172	Romance	Thiers	45.8579	3.5452	Thiers	THIERS	45.8333	3.6667	http://www.geonames.org/6440251/thiers.html
08.0.173	FRR173	Romance	Néronde	45.8390	4.2357	Néronde	NERONDE	45.8333	4.3333	http://www.geonames.org/2990759/neronde.html
08.0.174	FRR174	Romance	Villars-enDombes	46.0021	5.0291	Villars-enDombes	VILLARS-EN-DOMBES	45.8333	5.0000	http://www.geonames.org/2968917/villars-les-dombes.html
08.0.175	FRR175	Romance	Thézillieu	45.8934	5.5966	Thézilieu	THEZILIEU	45.8333	5.6667	http://www.geonames.org/2972896/thezillieu.html
08.0.176	FRR176	Romance	Thônes	45.8820	6.3248	Thônes	THONES	45.8333	6.3333	http://www.geonames.org/6454674/thones.html
08.0.177	FRR177	Romance	Chamonix	45.9237	6.8694	Chamonix	CHAMONIX	45.8333	6.8333	http://www.geonames.org/3027301/chamonix-mont-blanc.html
08.0.178	FRR178	Romance	Saint-Vivien-de-Médoc	45.4311	-1.0337	St._Vivien	S. VIVIEN	45.5000	-1.0000	http://www.geonames.org/6432461/saint-vivien-de-medoc.html
08.0.179	FRR179	Romance	Guitinières	45.4402	-0.5137	Guitinières	GUITINIERES	45.5000	-0.6667	http://www.geonames.org/6427966/guitinieres.html
08.0.180	FRR180	Romance	Angeduc	45.4742	-0.0500	Angeduc	ANGEDUC	45.5000	0.0000	http://www.geonames.org/6447297/angeduc.html
08.0.181	FRR181	Romance	St. Pardoux-la-Rivière	45.4935	0.7449	St._Pardoux-la-Rivière	S. PARDOUX-LA-RIVIERE	45.5000	0.6667	http://www.geonames.org/2977729/saint-pardoux-la-riviere.html
08.0.182	FRR182	Romance	Coussac-Bonneval	45.5096	1.3263	Coussac-Bonneval	COUSSAC-BONNEVAL	45.5000	1.3333	http://www.geonames.org/6451714/coussac-bonneval.html
08.0.183	FRR183	Romance	Meymac	45.5367	2.1466	Meymac	MEYMAC	45.5000	2.0000	http://www.geonames.org/6428370/meymac.html
08.0.184	FRR184	Romance	Mont-Dore	45.5750	2.8093	Mont-Dore	MONT-DORE	45.5000	2.6667	http://www.geonames.org/6440098/mont-dore.html
08.0.185	FRR185	Romance	St. Germain-Lembron	45.4571	3.2369	St._Germain-Lembron	ST-GERMAIN-LEMBRON	45.5000	3.3333	http://www.geonames.org/2979758/saint-germain-lembron.html
08.0.186	FRR186	Romance	St. Bonnet-le-Château	45.4266	4.0658	St._Bonnet-le-Château	ST BONNET-LE-CHATEAU	45.5000	4.0000	http://www.geonames.org/6434246/saint-bonnet-le-chateau.html
08.0.187	FRR187	Romance	Clonas	45.4143	4.7904	Clonas	CLONAS	45.5000	4.6667	http://www.geonames.org/6433172/clonas-sur-vareze.html
08.0.188	FRR188	Romance	Saint-Jean-de-Bournay	45.5018	5.1395	St._Jean-de_Bonn	ST JEAN-DE-BONN	45.5000	5.3333	http://www.geonames.org/2979342/saint-jean-de-bournay.html
08.0.189	FRR189	Romance	Chignin	45.5235	6.0116	Chignin	CHIGNIN	45.5000	6.0000	http://www.geonames.org/3025162/chignin.html
08.0.190	FRR190	Romance	Bozel	45.4433	6.6481	Bozel	BOZEL	45.5000	6.5000	http://www.geonames.org/3030641/bozel.html
08.0.191	FRR191	Romance	Bessans	45.3199	6.9935	Bessans	SEEZ	45.5000	7.0000	http://www.geonames.org/6450976/bessans.html
08.0.192	FRR192	Romance	Cissac-Médoc	45.2298	-0.8332	Cissas	CISSAC	45.1667	-1.0000	http://www.geonames.org/6432190/cissac-medoc.html
08.0.193	FRR193	Romance	St. Savin	45.1395	-0.4455	St._Savin	S. SAVIN	45.1667	-0.3333	http://www.geonames.org/6616573/saint-savin.html
08.0.194	FRR194	Romance	Bourgnac	45.0162	0.4026	Bourgnac	BOURGNAC	45.1667	0.3333	http://www.geonames.org/6447779/bourgnac.html
08.0.195	FRR195	Romance	St. Pierre-de-Chignac	45.1253	0.8560	St._Pierre-de-Chignac	ST PIERRE-DE-CHIGNAC	45.1667	1.0000	http://www.geonames.org/2980433/sainte-marie-de-chignac.html
08.0.196	FRR196	Romance	Larche	45.1232	1.4150	Larche	LARCHE	45.1667	1.6667	http://www.geonames.org/3007037/larche.html
08.0.197	FRR197	Romance	Pléaux	45.1340	2.2258	Pléaux	PLEAUX	45.1667	2.3333	http://www.geonames.org/6613431/pleaux.html
08.0.198	FRR198	Romance	Massiac	45.2501	3.1996	Massiac	MASSIAC	45.1667	3.0000	http://www.geonames.org/6427584/massiac.html
08.0.199	FRR199	Romance	Paulhaguet	45.2071	3.5153	Paulhaguet	PAULHAGUET	45.1667	3.6667	http://www.geonames.org/2988340/paulhaguet.html
08.0.200	FRR200	Romance	Riotord	45.2318	4.4008	Riotord	RIOTORD	45.1667	4.3333	http://www.geonames.org/6434396/riotord.html
08.0.201	FRR201	Romance	St. Nazeire-en-Royans	45.0597	5.2497	St._Nazeire-en-Royans	S. NAZAIRE-EN-ROYANS	45.1667	5.0000	http://www.geonames.org/2977913/saint-nazaire-en-royans.html
08.0.202	FRR202	Romance	Sassenage	45.2066	5.6637	Sassenage	SASSENAGE	45.1667	5.6667	http://www.geonames.org/2975908/sassenage.html
08.0.203	FRR203	Romance	Saint-Martin-de-la-Porte	45.2387	6.4480	St._Martin-La-Porte	ST MARTIN-LA-PORTE	45.3333	6.3333	http://www.geonames.org/6442888/saint-martin-de-la-porte.html
08.0.204	FRR204	Romance	Lanslebourg	45.2856	6.8757	Lanslebourg	LANSLEBOURG	45.0000	6.6167	http://www.geonames.org/3007538/lanslebourg-mont-cenis.html
08.0.205	FRR205	Romance	Lacanau	44.9785	-1.0757	Lacanau	LACANAU	44.8333	-1.0000	http://www.geonames.org/3010626/lacanau.html
08.0.206	FRR206	Romance	Targon	44.7345	-0.2642	Targon	TARGON	44.8333	-0.3333	http://www.geonames.org/6432483/targon.html
08.0.207	FRR207	Romance	Vélines	44.8592	0.1075	Vélines	VELINES	44.8333	0.3333	http://www.geonames.org/6612375/velines.html
08.0.208	FRR208	Romance	Le Bugue	44.9185	0.9284	Le_Bugue	LE BUGUE	44.8333	1.0000	http://www.geonames.org/3004935/le-bugue.html
08.0.209	FRR209	Romance	Gramat	44.7793	1.7235	Gramat	GRAMAT	44.8333	1.6667	http://www.geonames.org/6454166/gramat.html
08.0.210	FRR210	Romance	Saint-Mamet-la-Salvetat	44.8574	2.3064	St._Mamet	ST MAMET	44.8333	2.3333	http://www.geonames.org/2978623/saint-mamet-la-salvetat.html
08.0.211	FRR211	Romance	Laguiole	44.6836	2.8456	Laguiole	LAGUIOLE	44.8333	3.0000	http://www.geonames.org/6426943/laguiole.html
08.0.212	FRR212	Romance	Langogne	44.7272	3.8554	Langogne	LANGOGNE	44.8333	3.6667	http://www.geonames.org/3007694/langogne.html
08.0.213	FRR213	Romance	Burzet	44.7398	4.2441	Burzet	BURZET	44.8333	4.3333	http://www.geonames.org/6446751/burzet.html
08.0.214	FRR214	Romance	Marsanne	44.6439	4.8734	Marsanne	MARSANNE	44.8333	5.0000	http://www.geonames.org/2995487/marsanne.html
08.0.215	FRR215	Romance	Monestier-de-Clermont	44.9166	5.6350	Monestier-de-Clermont	MONESTIER-DE-CLERMONT	44.8333	5.6667	http://www.geonames.org/2993323/monestier-de-clermont.html
08.0.216	FRR216	Romance	St. Firmin	44.7808	6.0294	St._Firmin	ST FIRMIN	44.8333	6.3333	http://www.geonames.org/6615734/saint-firmin.html
08.0.217	FRR217	Romance	Aiguilles	44.7820	6.8696	Aiguilles	AIGUILLES	44.8333	6.8333	http://www.geonames.org/3038473/aiguilles.html
08.0.218	FRR218	Romance	La Teste-de-Buch	44.6311	-1.1482	La_Teste-de-Buch	LA TESTE-DE-BUCH	44.5000	-1.0000	http://www.geonames.org/6455878/la-teste-de-buch.html
08.0.219	FRR219	Romance	St. Côme	44.4246	-0.1821	St._Côme	S. COME	44.5000	-0.3333	http://www.geonames.org/6616565/saint-come.html
08.0.220	FRR220	Romance	Seyches	44.5509	0.3052	Seyches	SEYCHES	44.5000	0.3333	http://www.geonames.org/6435100/seyches.html
08.0.221	FRR221	Romance	Tournon d' Agenais	44.4006	0.9966	Tournon_d'_Agenais	TOURNON D'AGENAIS	44.5000	1.0000	http://www.geonames.org/2972210/tournon-d-agenais.html
08.0.222	FRR222	Romance	Rieupeyroux	44.3062	2.2363	Rieupeyroux	RIEUPEYROUX	44.5000	1.6667	http://www.geonames.org/6427001/rieupeyroux.html
08.0.223	FRR223	Romance	Conques	44.5994	2.3960	Conques	CONQUES	44.5000	2.3333	http://www.geonames.org/6447087/conques.html
08.0.224	FRR224	Romance	Séverac-le-Château	44.3220	3.0711	Séverac-le-Château	SEVERAC-LE-CHATEAU	44.5000	3.0000	http://www.geonames.org/6427057/severac-le-chateau.html
08.0.225	FRR225	Romance	Villefort	44.4386	3.9329	Villefort	VILLEFORT	44.5000	3.6667	http://www.geonames.org/2968768/villefort.html
08.0.226	FRR226	Romance	Vogüe	44.5511	4.4133	Vogüe	VOGUE	44.5000	4.3333	http://www.geonames.org/6425886/voguee.html
08.0.227	FRR227	Romance	Pierrelatte	44.3777	4.6970	Pierrelatte	PIERRELATTE	44.5000	5.0000	http://www.geonames.org/6430168/pierrelatte.html
08.0.228	FRR228	Romance	Veynes	44.5344	5.8247	Veynes	VEYNES	44.5000	5.6667	http://www.geonames.org/6425658/veynes.html
08.0.229	FRR229	Romance	Chorges	44.5457	6.2755	Chorges	CHORGES	44.5000	6.3333	http://www.geonames.org/6446636/chorges.html
08.0.230	FRR230	Romance	Barcelonnette	44.3863	6.6505	Barcelonnette	BARCELONNETTE	44.5000	6.8333	http://www.geonames.org/3034991/barcelonnette.html
08.0.231	FRR231	Romance	Mézos	44.0757	-1.1662	Mézos	MEZOS	44.1667	-1.0000	http://www.geonames.org/6433890/mezos.html
08.0.232	FRR232	Romance	Luxey	44.2640	-0.5181	Luxey	LUXEY	44.1667	-0.3333	http://www.geonames.org/6433877/luxey.html
08.0.233	FRR233	Romance	Mézin	44.0562	0.2565	Mézin	MEZIN	44.1667	0.3333	http://www.geonames.org/6454182/mezin.html
08.0.234	FRR234	Romance	Moissac	44.1049	1.0847	Moissac	MOISSAC	44.1667	1.0000	http://www.geonames.org/6444999/moissac.html
08.0.235	FRR235	Romance	Laguépie	44.1476	1.9670	Laguépie	LA GUEPIE	44.1667	1.6667	http://www.geonames.org/3008860/laguepie.html
08.0.236	FRR236	Romance	Valderiès	44.0125	2.2339	Valderiès	VALDERIES	44.1667	2.3333	http://www.geonames.org/6444974/valderies.html
08.0.237	FRR237	Romance	St. Rome de Tarn	44.0481	2.8960	St._Rome_de_Tarn	ST ROME DE TARN	44.1667	3.0000	http://www.geonames.org/6427038/saint-rome-de-tarn.html
08.0.238	FRR238	Romance	Florac	44.3240	3.5937	Florac	FLORAC	44.1667	3.6667	http://www.geonames.org/6613642/florac.html
08.0.239	FRR239	Romance	Uzès	44.0121	4.4199	Uzès	UZES	44.1667	4.3333	http://www.geonames.org/6431469/uzes.html
08.0.240	FRR240	Romance	Courthézon	44.0856	4.8830	Courthézon	COURTHEZON	44.1667	5.0000	http://www.geonames.org/3022897/courthezon.html
08.0.241	FRR241	Romance	St. Etienne les Orgues	44.0457	5.7784	St._Etienne_les_Orgues	ST ETIENNE LES ORGUES	44.1667	5.6667	http://www.geonames.org/6425566/saint-etienne-les-orgues.html
08.0.242	FRR242	Romance	La Javie	44.1745	6.3499	La_Javie	LA JAVIE	44.1667	6.3333	http://www.geonames.org/6456655/la-javie.html
08.0.243	FRR243	Romance	Saint-Sauveur-sur-Tinée	44.0830	7.1050	St._Sauver	S. SAUVER	44.1667	7.0000	http://www.geonames.org/6425678/saint-sauveur-sur-tinee.html
08.0.244	FRR244	Romance	Fontan	44.0027	7.5541	Fontan	FONTAN	44.1667	7.5000	http://www.geonames.org/6446706/fontan.html
08.0.245	FRR245	Romance	Soustons	43.7556	-1.3266	Soustons	SOUSTONS	43.8333	-1.1667	http://www.geonames.org/2973918/soustons.html
08.0.246	FRR246	Romance	Tartas	43.8321	-0.8093	Tartas	TARTAS	43.8333	-0.6667	http://www.geonames.org/2973338/tartas.html
08.0.247	FRR247	Romance	Eauze	43.8626	0.1005	Eauze	EAUZE	43.8333	0.0000	http://www.geonames.org/6431903/eauze.html
08.0.248	FRR248	Romance	Jégun	43.7573	0.4588	Jégun	JEGUN	43.8333	0.6667	http://www.geonames.org/6613440/jegun.html
08.0.249	FRR249	Romance	Grisolles	43.8271	1.2970	Grisolles	GRISOLLES	43.8333	1.3333	http://www.geonames.org/6451438/grisolles.html
08.0.250	FRR250	Romance	Brousse	43.7174	2.0730	Brousse	BROUSSE	43.8333	2.0000	http://www.geonames.org/6455283/brousse.html
08.0.251	FRR251	Romance	Belmont	43.8172	2.7553	Belmont	BELMONT	43.8333	2.6667	http://www.geonames.org/6447052/belmont-sur-rance.html
08.0.252	FRR252	Romance	Lodève	43.7309	3.3203	Lodève	LODEVE	43.8333	3.3333	http://www.geonames.org/6432539/lodeve.html
08.0.253	FRR253	Romance	Les Matelles	43.7306	3.8099	Les_Matelles	LES MATELLES	43.8333	4.0000	http://www.geonames.org/6455882/les-matelles.html
08.0.254	FRR254	Romance	Aramon	43.8908	4.6794	Aramon	ARAMON	43.8333	4.6667	http://www.geonames.org/6614447/aramon.html
08.0.255	FRR255	Romance	Vaucluse	43.9484	4.8075	Vaucluse	VAUCLUSE	43.8333	5.3333	http://www.geonames.org/2991750/mormoiron.html
08.0.256	FRR256	Romance	Gréoux	43.7579	5.8858	Gréoux	GREOUX	43.8333	6.0000	http://www.geonames.org/6446619/greoux-les-bains.html
08.0.257	FRR257	Romance	Castellane	43.8462	6.5137	Castellane	CASTELLANE	43.8333	6.6667	http://www.geonames.org/6446589/castellane.html
08.0.258	FRR258	Romance	Plan du Var	43.8582	7.1973	Plan_du_Var	PLAN DU VAR	43.8333	7.1667	http://www.geonames.org/3002730/le-plan-du-var.html
08.0.259	FRR259	Romance	Menton	43.7745	7.4975		MENTON	43.8333	7.5000	http://www.geonames.org/6446719/menton.html
08.0.260	FRR260	Romance	Biarritz	43.4832	-1.5586	Biarritz	BIARRITZ	43.5000	-1.5000	http://www.geonames.org/6440301/biarritz.html
08.0.261	FRR261	Romance	Artix	43.3971	-0.5723	Artix	ARTIX	43.5000	-0.6667	http://www.geonames.org/2974814/serres-sainte-marie.html
08.0.262	FRR262	Romance	St. Martin	43.1602	0.0869	St._Martin	ST-MARTIN	43.5000	0.0000	http://www.geonames.org/6613446/saint-martin.html
08.0.263	FRR263	Romance	Lombez	43.4758	0.9120	Lombez	LOMBEZ	43.5000	0.6667	http://www.geonames.org/2997812/lombez.html
08.0.264	FRR264	Romance	Léguevin	43.6001	1.2344	Léguevin	LEGUEVIN	43.5000	1.3333	http://www.geonames.org/3003874/leguevin.html
